{"type":"FeatureCollection","features":[{"type":"Feature","geometry":{"type":"Point","coordinates":[103.843549,1.274929]},"properties":{"id":1,"name":"Student 1","pin":79027,"address":"100 AM 100 TRAS STREET","type":"home"}},{"type":"Feature","geometry":{"type":"Point","coordinates":[103.786252,1.3081449]},"properties":{"id":2,"name":"Student 2","pin":270025,"address":"25 GHIM MOH LINK 25 GHIM MOH LINK #01-K1","type":"home"}},{"type":"Feature","geometry":{"type":"Point","coordinates":[103.8367068,1.3162027]},"properties":{"id":3,"name":"Student 3","pin":309425,"address":"25 GHIM MOH LINK 25 GHIM MOH LINK","type":"home"}},{"type":"Feature","geometry":{"type":"Point","coordinates":[103.8388679,1.301177]},"properties":{"id":4,"name":"Student 4","pin":238895,"address":"313 @ SOMERSET 313 ORCHARD ROAD","type":"home"}},{"type":"Feature","geometry":{"type":"Point","coordinates":[103.760105,1.385118]},"properties":{"id":5,"name":"Student 5","pin":670628,"address":"628 SENJA ROAD 628 SENJA ROAD #01-K1","type":"home"}},{"type":"Feature","geometry":{"type":"Point","coordinates":[103.857812,1.338597]},"properties":{"id":6,"name":"Student 6","pin":310234,"address":"628 SENJA ROAD 628 SENJA ROAD","type":"home"}},{"type":"Feature","geometry":{"type":"Point","coordinates":[103.79527,1.437703]},"properties":{"id":7,"name":"Student 7","pin":730888,"address":"888 PLAZA - STATION 1 888 WOODLANDS DRIVE 50","type":"home"}},{"type":"Feature","geometry":{"type":"Point","coordinates":[103.79527,1.437703]},"properties":{"id":8,"name":"Student 8","pin":730888,"address":"888 PLAZA - STATION 2 888 WOODLANDS DRIVE 50","type":"home"}},{"type":"Feature","geometry":{"type":"Point","coordinates":[103.75572,1.339981]},"properties":{"id":9,"name":"Student 9","pin":659553,"address":"ACACIA LODGE 540 BUKIT BATOK STREET 23","type":"home"}},{"type":"Feature","geometry":{"type":"Point","coordinates":[103.814086,1.324088]},"properties":{"id":10,"name":"Student 10","pin":283876,"address":"ADAM ROAD FOOD CENTRE 2 ADAM ROAD","type":"home"}},{"type":"Feature","geometry":{"type":"Point","coordinates":[103.800957,1.440681]},"properties":{"id":11,"name":"Student 11","pin":738344,"address":"ADMIRALTY MRT STATION 70 WOODLANDS AVENUE 7","type":"home"}},{"type":"Feature","geometry":{"type":"Point","coordinates":[103.8017495,1.4397712]},"properties":{"id":12,"name":"Student 12","pin":730678,"address":"ADMIRALTY PLACE - STATION 1 678 WOODLANDS AVENUE 6","type":"home"}},{"type":"Feature","geometry":{"type":"Point","coordinates":[103.8017495,1.4397712]},"properties":{"id":13,"name":"Student 13","pin":730678,"address":"ADMIRALTY PLACE - STATION 2 678 WOODLANDS AVENUE 6","type":"home"}},{"type":"Feature","geometry":{"type":"Point","coordinates":[103.840661,1.440348]},"properties":{"id":14,"name":"Student 14","pin":768923,"address":"AGILENT TECHNOLOGIES 1 YISHUN AVENUE 7","type":"home"}},{"type":"Feature","geometry":{"type":"Point","coordinates":[103.802355,1.284818]},"properties":{"id":15,"name":"Student 15","pin":159963,"address":"AIA ALEXANDRA 371 ALEXANDRA ROAD","type":"home"}},{"type":"Feature","geometry":{"type":"Point","coordinates":[103.997269,1.377201]},"properties":{"id":16,"name":"Student 16","pin":819829,"address":"AIRLINE HOUSE 25 AIRLINE ROAD","type":"home"}},{"type":"Feature","geometry":{"type":"Point","coordinates":[103.981431,1.343325]},"properties":{"id":17,"name":"Student 17","pin":819660,"address":"AIRPORT POLICE STATION - STATION 1 35 AIRPORT BOULEVARD","type":"home"}},{"type":"Feature","geometry":{"type":"Point","coordinates":[103.981431,1.343325]},"properties":{"id":18,"name":"Student 18","pin":819660,"address":"AIRPORT POLICE STATION - STATION 2 35 AIRPORT BOULEVARD","type":"home"}},{"type":"Feature","geometry":{"type":"Point","coordinates":[103.801364,1.287587]},"properties":{"id":19,"name":"Student 19","pin":159964,"address":"ALEXANDRA HOSPITAL 378 ALEXANDRA ROAD","type":"home"}},{"type":"Feature","geometry":{"type":"Point","coordinates":[103.800274,1.277325]},"properties":{"id":20,"name":"Student 20","pin":119967,"address":"ALEXANDRA POINT BLOCK A 438A ALEXANDRA ROAD","type":"home"}},{"type":"Feature","geometry":{"type":"Point","coordinates":[103.801381,1.273673]},"properties":{"id":21,"name":"Student 21","pin":119963,"address":"ALEXANDRA RETAIL CENTRE - STATION 1 460 ALEXANDRA ROAD LEVEL 1","type":"home"}},{"type":"Feature","geometry":{"type":"Point","coordinates":[103.801381,1.273673]},"properties":{"id":22,"name":"Student 22","pin":119963,"address":"ALEXANDRA RETAIL CENTRE - STATION 2 460 ALEXANDRA ROAD LEVEL 1","type":"home"}},{"type":"Feature","geometry":{"type":"Point","coordinates":[103.882721,1.316169]},"properties":{"id":23,"name":"Student 23","pin":388310,"address":"ALJUNIED MRT STATION 81 LORONG 25 GEYLANG","type":"home"}},{"type":"Feature","geometry":{"type":"Point","coordinates":[103.8477899,1.28097]},"properties":{"id":24,"name":"Student 24","pin":69111,"address":"AMOY STREET FOOD CENTRE TELOK AYER STREET","type":"home"}},{"type":"Feature","geometry":{"type":"Point","coordinates":[103.805249,1.288541]},"properties":{"id":25,"name":"Student 25","pin":159953,"address":"ANCHORPOINT 370 ALEXANDRA ROAD","type":"home"}},{"type":"Feature","geometry":{"type":"Point","coordinates":[103.84042,1.366953]},"properties":{"id":26,"name":"Student 26","pin":569976,"address":"ANG MO KIO COMMUNITY CLUB 795 ANG MO KIO AVENUE 1","type":"home"}},{"type":"Feature","geometry":{"type":"Point","coordinates":[103.847305,1.3724019]},"properties":{"id":27,"name":"Student 27","pin":560723,"address":"ANG MO KIO POLYCLINICS 723 ANG MO KIO AVENUE 8","type":"home"}},{"type":"Feature","geometry":{"type":"Point","coordinates":[103.845664,1.374684]},"properties":{"id":28,"name":"Student 28","pin":569842,"address":"ANG MO KIO TOWN COUNCIL 161 ANG MO KIO AVENUE 4","type":"home"}},{"type":"Feature","geometry":{"type":"Point","coordinates":[103.730124,1.320429]},"properties":{"id":29,"name":"Student 29","pin":619415,"address":"AVERY LODGE 2D JALAN PAPAN","type":"home"}},{"type":"Feature","geometry":{"type":"Point","coordinates":[103.839812,1.374125]},"properties":{"id":30,"name":"Student 30","pin":560161,"address":"AXS LOBBY@SULTAN LINK - STATION 1 61 MOHAMED SULTAN ROAD","type":"home"}},{"type":"Feature","geometry":{"type":"Point","coordinates":[103.839876,1.366851]},"properties":{"id":31,"name":"Student 31","pin":567226,"address":"AXS LOBBY@SULTAN LINK - STATION 2 61 MOHAMED SULTAN ROAD","type":"home"}},{"type":"Feature","geometry":{"type":"Point","coordinates":[103.787009,1.296167]},"properties":{"id":32,"name":"Student 32","pin":139961,"address":"AYER RAJAH AMENITY CENTRE 69 AYER RAJAH CRESCENT","type":"home"}},{"type":"Feature","geometry":{"type":"Point","coordinates":[103.935899,1.324349]},"properties":{"id":33,"name":"Student 33","pin":467352,"address":"BEDOK COMMUNITY CLUB 850 NEW UPPER CHANGI ROAD","type":"home"}},{"type":"Feature","geometry":{"type":"Point","coordinates":[103.9392918,1.3250556]},"properties":{"id":34,"name":"Student 34","pin":467360,"address":"BEDOK MALL 311 UPPER NEW CHANGI ROAD BASEMENT 1","type":"home"}},{"type":"Feature","geometry":{"type":"Point","coordinates":[112.889509,33.771558]},"properties":{"id":35,"name":"Student 35","pin":467347,"address":"BEDOK MRT STATION 315 NEW UPPER CHANGI ROAD","type":"home"}},{"type":"Feature","geometry":{"type":"Point","coordinates":[103.932292,1.324516]},"properties":{"id":36,"name":"Student 36","pin":467351,"address":"BEDOK POINT 799 NEW UPPER CHANGI ROAD","type":"home"}},{"type":"Feature","geometry":{"type":"Point","coordinates":[103.930655,1.326906]},"properties":{"id":37,"name":"Student 37","pin":469659,"address":"BEDOK PUBLIC LIBRARY 21 BEDOK NORTH STREET 1 #01-00","type":"home"}},{"type":"Feature","geometry":{"type":"Point","coordinates":[103.8319512,1.2936891]},"properties":{"id":38,"name":"Student 38","pin":237994,"address":"BEDOK PUBLIC LIBRARY 21 BEDOK NORTH STREET 1","type":"home"}},{"type":"Feature","geometry":{"type":"Point","coordinates":[103.792414,1.303452]},"properties":{"id":39,"name":"Student 39","pin":138671,"address":"BIOPOLIS @ ONE NORTH MATRIX BLOCK 30 BIOPOLIS STREET","type":"home"}},{"type":"Feature","geometry":{"type":"Point","coordinates":[103.8483959,1.3647]},"properties":{"id":40,"name":"Student 40","pin":560342,"address":"BISHAN-TOA PAYOH TOWN COUNCIL 197 BISHAN STREET 13","type":"home"}},{"type":"Feature","geometry":{"type":"Point","coordinates":[103.854658,1.3737839]},"properties":{"id":41,"name":"Student 41","pin":560532,"address":"BISHAN-TOA PAYOH TOWN COUNCIL OFFICE 125A LORONG 2 TOA PAYOH","type":"home"}},{"type":"Feature","geometry":{"type":"Point","coordinates":[103.706071,1.338717]},"properties":{"id":42,"name":"Student 42","pin":649846,"address":"BOON LAY MRT STATION 301 BOON LAY WAY","type":"home"}},{"type":"Feature","geometry":{"type":"Point","coordinates":[103.712422,1.346517]},"properties":{"id":43,"name":"Student 43","pin":640221,"address":"BOON LAY SHOPPING CENTRE - STATION 1 221 BOON LAY PLACE","type":"home"}},{"type":"Feature","geometry":{"type":"Point","coordinates":[103.712422,1.346517]},"properties":{"id":44,"name":"Student 44","pin":640221,"address":"BOON LAY SHOPPING CENTRE - STATION 2 221 BOON LAY PLACE","type":"home"}},{"type":"Feature","geometry":{"type":"Point","coordinates":[103.749569,1.349046]},"properties":{"id":45,"name":"Student 45","pin":659958,"address":"BUKIT BATOK MRT STATION 10 BUKIT BATOK CENTRAL","type":"home"}},{"type":"Feature","geometry":{"type":"Point","coordinates":[103.747924,1.351972]},"properties":{"id":46,"name":"Student 46","pin":659164,"address":"BUKIT BATOK POLYCLINICS 50 BUKIT BATOK WEST","type":"home"}},{"type":"Feature","geometry":{"type":"Point","coordinates":[103.751888,1.359012]},"properties":{"id":47,"name":"Student 47","pin":659083,"address":"BUKIT GOMBAK MRT STATION 802 BUKIT BATOK WEST AVENUE 5","type":"home"}},{"type":"Feature","geometry":{"type":"Point","coordinates":[103.764153,1.379962]},"properties":{"id":48,"name":"Student 48","pin":677743,"address":"BUKIT PANJANG PLAZA - STATION 1 1 JELEBU ROAD","type":"home"}},{"type":"Feature","geometry":{"type":"Point","coordinates":[103.764153,1.379962]},"properties":{"id":49,"name":"Student 49","pin":677743,"address":"BUKIT PANJANG PLAZA - STATION 2 1 JELEBU ROAD","type":"home"}},{"type":"Feature","geometry":{"type":"Point","coordinates":[103.764153,1.379962]},"properties":{"id":50,"name":"Student 50","pin":677743,"address":"BUKIT PANJANG PLAZA - STATION 3 1 JELEBU ROAD","type":"home"}},{"type":"Feature","geometry":{"type":"Point","coordinates":[103.776288,1.339521]},"properties":{"id":51,"name":"Student 51","pin":588215,"address":"BUKIT TIMAH MARKET & FOOD CENTRE 51 UPPER BUKIT TIMAH ROAD","type":"home"}},{"type":"Feature","geometry":{"type":"Point","coordinates":[103.775963,1.340902]},"properties":{"id":52,"name":"Student 52","pin":588173,"address":"BUKIT TIMAH SHOPPING CENTRE 170 UPPER BUKIT TIMAH ROAD","type":"home"}},{"type":"Feature","geometry":{"type":"Point","coordinates":[103.7928089,1.30946]},"properties":{"id":53,"name":"Student 53","pin":270036,"address":"BUONA VISTA HDB BRANCH OFFICE - STATION 1 36 HOLLAND DRIVE","type":"home"}},{"type":"Feature","geometry":{"type":"Point","coordinates":[103.7928089,1.30946]},"properties":{"id":54,"name":"Student 54","pin":270036,"address":"BUONA VISTA HDB BRANCH OFFICE - STATION 2 36 HOLLAND DRIVE","type":"home"}},{"type":"Feature","geometry":{"type":"Point","coordinates":[103.789937,1.307238]},"properties":{"id":55,"name":"Student 55","pin":139345,"address":"BUONA VISTA MRT STATION 100 NORTH VISTA ROAD","type":"home"}},{"type":"Feature","geometry":{"type":"Point","coordinates":[103.768984,1.310116]},"properties":{"id":56,"name":"Student 56","pin":120420,"address":"CASA CLEMENTI 420A CLEMENTI AVENUE 1","type":"home"}},{"type":"Feature","geometry":{"type":"Point","coordinates":[103.964995,1.334908]},"properties":{"id":57,"name":"Student 57","pin":486066,"address":"CBP THE SIGNATURE 51 CHANGI BUSINESS PARK CENTRAL 2 #01-K1","type":"home"}},{"type":"Feature","geometry":{"type":"Point","coordinates":[103.859058,1.290272]},"properties":{"id":58,"name":"Student 58","pin":39801,"address":"CBP THE SIGNATURE 51 CHANGI BUSINESS PARK CENTRAL 2","type":"home"}},{"type":"Feature","geometry":{"type":"Point","coordinates":[103.822926,1.280226]},"properties":{"id":59,"name":"Student 59","pin":169208,"address":"CENDEX CENTRE 120 LOWER DELTA ROAD","type":"home"}},{"type":"Feature","geometry":{"type":"Point","coordinates":[103.7959039,1.274615]},"properties":{"id":60,"name":"Student 60","pin":118507,"address":"CENTRE FOR ANIMAL WELFARE AND CONTROL 75 PASIR PANJANG ROAD #01-1526","type":"home"}},{"type":"Feature","geometry":{"type":"Point","coordinates":[103.8462659,1.3362792]},"properties":{"id":61,"name":"Student 61","pin":319640,"address":"CENTRE FOR ANIMAL WELFARE AND CONTROL 75 PASIR PANJANG ROAD","type":"home"}},{"type":"Feature","geometry":{"type":"Point","coordinates":[103.963981,1.336056]},"properties":{"id":62,"name":"Student 62","pin":486038,"address":"CHANGI CITY POINT 5 CHANGI BUSINESS PARK CENTRAL 1","type":"home"}},{"type":"Feature","geometry":{"type":"Point","coordinates":[103.767112,1.438347]},"properties":{"id":63,"name":"Student 63","pin":738406,"address":"CHARTERED SEMICONDUCTOR BUILDING 3 60 WOODLANDS INDUSTRIAL PARK D STREET 2","type":"home"}},{"type":"Feature","geometry":{"type":"Point","coordinates":[103.8459419,1.371011]},"properties":{"id":64,"name":"Student 64","pin":560715,"address":"CHEERS ANG MO KIO 407 ANG MO KIO AVENUE 10","type":"home"}},{"type":"Feature","geometry":{"type":"Point","coordinates":[103.925109,1.331305]},"properties":{"id":65,"name":"Student 65","pin":460539,"address":"CHEERS BEDOK NORTH 539 BEDOK NORTH STREET 3 #01-625","type":"home"}},{"type":"Feature","geometry":{"type":"Point","coordinates":[103.8451045,1.3006139]},"properties":{"id":66,"name":"Student 66","pin":238839,"address":"CHEERS BEDOK NORTH 539 BEDOK NORTH STREET 3","type":"home"}},{"type":"Feature","geometry":{"type":"Point","coordinates":[76.346362,10.441288]},"properties":{"id":67,"name":"Student 67","pin":680303,"address":"CHEERS CHOA CHU KANG 303 CHOA CHU KANG AVENUE 4 #01-723","type":"home"}},{"type":"Feature","geometry":{"type":"Point","coordinates":[103.837222,1.3714519]},"properties":{"id":68,"name":"Student 68","pin":560107,"address":"CHEERS CHOA CHU KANG 303 CHOA CHU KANG AVENUE 4","type":"home"}},{"type":"Feature","geometry":{"type":"Point","coordinates":[103.8512186,1.2789419]},"properties":{"id":69,"name":"Student 69","pin":18960,"address":"CHEERS STAMFORD COURT 61 STAMFORD ROAD","type":"home"}},{"type":"Feature","geometry":{"type":"Point","coordinates":[103.8394398,1.2912837]},"properties":{"id":70,"name":"Student 70","pin":239001,"address":"CHIN SWEE HDB BRANCH OFFICE 54 CHIN SWEE ROAD","type":"home"}},{"type":"Feature","geometry":{"type":"Point","coordinates":[103.732342,1.34235]},"properties":{"id":71,"name":"Student 71","pin":609959,"address":"CHINESE GARDEN MRT STATION 151 BOON LAY WAY","type":"home"}},{"type":"Feature","geometry":{"type":"Point","coordinates":[103.900423,1.300211]},"properties":{"id":72,"name":"Student 72","pin":439870,"address":"CHINESE SWIMMING CLUB 21 & 34 AMBER ROAD","type":"home"}},{"type":"Feature","geometry":{"type":"Point","coordinates":[103.745452,1.38504]},"properties":{"id":73,"name":"Student 73","pin":680309,"address":"CHOA CHU KANG HDB BRANCH OFFICE 309 CHOA CHU KANG AVENUE 4","type":"home"}},{"type":"Feature","geometry":{"type":"Point","coordinates":[103.744252,1.385659]},"properties":{"id":74,"name":"Student 74","pin":689810,"address":"CHOA CHU KANG MRT STATION CHOA CHU KANG AVENUE 4","type":"home"}},{"type":"Feature","geometry":{"type":"Point","coordinates":[103.8295153,1.4311295]},"properties":{"id":75,"name":"Student 75","pin":768677,"address":"CHONG PANG COMMUNITY CLUB 21 YISHUN RING ROAD","type":"home"}},{"type":"Feature","geometry":{"type":"Point","coordinates":[103.750669,1.382301]},"properties":{"id":76,"name":"Student 76","pin":688846,"address":"CHUA CHU KANG POLYCLINICS 2 TECK WHYE CRESENT","type":"home"}},{"type":"Feature","geometry":{"type":"Point","coordinates":[103.892082,1.322415]},"properties":{"id":77,"name":"Student 77","pin":409179,"address":"CISCO CENTRE 20 JALAN AFIFI #01-02","type":"home"}},{"type":"Feature","geometry":{"type":"Point","coordinates":[103.827342,1.286145]},"properties":{"id":78,"name":"Student 78","pin":168732,"address":"CISCO CENTRE 20 JALAN AFIFI","type":"home"}},{"type":"Feature","geometry":{"type":"Point","coordinates":[103.965824,1.334129]},"properties":{"id":79,"name":"Student 79","pin":486026,"address":"CITI MICROBRANCH CHANGI BUSINESS PARK NO 3 CHANGI BUSINESS PARK CRESENT","type":"home"}},{"type":"Feature","geometry":{"type":"Point","coordinates":[103.8394398,1.2912837]},"properties":{"id":80,"name":"Student 80","pin":239001,"address":"CITIBANK BUGIS JUNCTION 200 VICTORIA STREET LEVEL 1","type":"home"}},{"type":"Feature","geometry":{"type":"Point","coordinates":[103.827528,1.288766]},"properties":{"id":81,"name":"Student 81","pin":169982,"address":"CITIBANK GREAT WORLD CITY 1 KIM SENG PROMENADE","type":"home"}},{"type":"Feature","geometry":{"type":"Point","coordinates":[103.905281,1.301072]},"properties":{"id":82,"name":"Student 82","pin":449269,"address":"CITIBANK PARKWAY PARADE 80 MARINE PARADE ROAD #01-02","type":"home"}},{"type":"Feature","geometry":{"type":"Point","coordinates":[103.822906,1.285883]},"properties":{"id":83,"name":"Student 83","pin":159682,"address":"CITIBANK PARKWAY PARADE 80 MARINE PARADE ROAD","type":"home"}},{"type":"Feature","geometry":{"type":"Point","coordinates":[103.849757,1.350139]},"properties":{"id":84,"name":"Student 84","pin":570514,"address":"CITIBANK SHAW HOUSE 350 ORCHARD ROAD","type":"home"}},{"type":"Feature","geometry":{"type":"Point","coordinates":[103.849457,1.349908]},"properties":{"id":85,"name":"Student 85","pin":570512,"address":"CITIBANK TAKASHIMAYA 391 ORCHARD ROAD","type":"home"}},{"type":"Feature","geometry":{"type":"Point","coordinates":[-122.492277,46.575603]},"properties":{"id":86,"name":"Student 86","pin":98585,"address":"CITIBANK VIVOCITY BRANCH 1 HARBOUR FRONT WALK #01-01","type":"home"}},{"type":"Feature","geometry":{"type":"Point","coordinates":[103.857763,1.372784]},"properties":{"id":87,"name":"Student 87","pin":560554,"address":"CITIBANK VIVOCITY BRANCH 1 HARBOUR FRONT WALK","type":"home"}},{"type":"Feature","geometry":{"type":"Point","coordinates":[103.691852,1.342802]},"properties":{"id":88,"name":"Student 88","pin":649041,"address":"CITY HARVEST CHURCH - STATION 1 NO 1 JURONG WEST STREET 91","type":"home"}},{"type":"Feature","geometry":{"type":"Point","coordinates":[103.959004,1.332875]},"properties":{"id":89,"name":"Student 89","pin":486150,"address":"CITY HARVEST CHURCH - STATION 2 NO 1 JURONG WEST STREET 91 #B2-00","type":"home"}},{"type":"Feature","geometry":{"type":"Point","coordinates":[103.855221,1.366129]},"properties":{"id":90,"name":"Student 90","pin":560443,"address":"CITY HARVEST CHURCH - STATION 2 NO 1 JURONG WEST STREET 91","type":"home"}},{"type":"Feature","geometry":{"type":"Point","coordinates":[103.691852,1.342802]},"properties":{"id":91,"name":"Student 91","pin":649041,"address":"CITY HARVEST CHURCH - STATION 3 NO 1 JURONG WEST STREET 91","type":"home"}},{"type":"Feature","geometry":{"type":"Point","coordinates":[103.848794,1.349971]},"properties":{"id":92,"name":"Student 92","pin":579837,"address":"CITY SQUARE MALL - STATION 1 180 KITCHENER ROAD","type":"home"}},{"type":"Feature","geometry":{"type":"Point","coordinates":[103.848794,1.349971]},"properties":{"id":93,"name":"Student 93","pin":579837,"address":"CITY SQUARE MALL - STATION 2 180 KITCHENER ROAD","type":"home"}},{"type":"Feature","geometry":{"type":"Point","coordinates":[103.79165,1.309322]},"properties":{"id":94,"name":"Student 94","pin":275983,"address":"CIVIL SERVICE COLLEGE 31 NORTH BUONA VISTA ROAD","type":"home"}},{"type":"Feature","geometry":{"type":"Point","coordinates":[103.761462,1.329805]},"properties":{"id":95,"name":"Student 95","pin":129817,"address":"CLEMENTI CAMP 26 CLEMENTI LOOP","type":"home"}},{"type":"Feature","geometry":{"type":"Point","coordinates":[103.768076,1.319023]},"properties":{"id":96,"name":"Student 96","pin":129880,"address":"CLEMENTI COMMUNITY CLUB 220 CLEMENTI AVENUE 4","type":"home"}},{"type":"Feature","geometry":{"type":"Point","coordinates":[103.765041,1.315483]},"properties":{"id":97,"name":"Student 97","pin":129580,"address":"CLEMENTI MRT STATION 3150 COMMONWEALTH AVENUE WEST","type":"home"}},{"type":"Feature","geometry":{"type":"Point","coordinates":[103.814102,1.28031]},"properties":{"id":98,"name":"Student 98","pin":109682,"address":"CMPB, DEFENCE TECHNOLOGY TOWER (CANTEEN) 2 5 DEPOT ROAD","type":"home"}},{"type":"Feature","geometry":{"type":"Point","coordinates":[103.818398,1.461269]},"properties":{"id":99,"name":"Student 99","pin":757444,"address":"COCHRANE LODGE II 49 ADMIRALTY ROAD WEST #01-03","type":"home"}},{"type":"Feature","geometry":{"type":"Point","coordinates":[103.773148,1.345236]},"properties":{"id":100,"name":"Student 100","pin":588183,"address":"COCHRANE LODGE II 49 ADMIRALTY ROAD WEST","type":"home"}},{"type":"Feature","geometry":{"type":"Point","coordinates":[103.8057218,1.29543]},"properties":{"id":101,"name":"Student 101","pin":149644,"address":"COMMONWEALTH CRESCENT HAWKER CENTRE 31 COMMONWEALTH CRESCENT","type":"home"}},{"type":"Feature","geometry":{"type":"Point","coordinates":[103.798047,1.302653]},"properties":{"id":102,"name":"Student 102","pin":149735,"address":"COMMONWEALTH MRT STATION 375 COMMONWEALTH AVENUE WEST","type":"home"}},{"type":"Feature","geometry":{"type":"Point","coordinates":[103.8481259,1.350614]},"properties":{"id":103,"name":"Student 103","pin":579827,"address":"CPF BISHAN BRANCH - STATION 1 3 BISHAN PLACE","type":"home"}},{"type":"Feature","geometry":{"type":"Point","coordinates":[103.849068,1.349575]},"properties":{"id":104,"name":"Student 104","pin":579838,"address":"CPF BISHAN BRANCH - STATION 2 3 BISHAN PLACE","type":"home"}},{"type":"Feature","geometry":{"type":"Point","coordinates":[103.739645,1.335135]},"properties":{"id":105,"name":"Student 105","pin":609646,"address":"CPF JURONG BRANCH - STATION 1 21 JURONG EAST STREET 13 #01-01","type":"home"}},{"type":"Feature","geometry":{"type":"Point","coordinates":[103.8313258,1.3059564]},"properties":{"id":106,"name":"Student 106","pin":238869,"address":"CPF JURONG BRANCH - STATION 1 21 JURONG EAST STREET 13","type":"home"}},{"type":"Feature","geometry":{"type":"Point","coordinates":[103.739645,1.335135]},"properties":{"id":107,"name":"Student 107","pin":609646,"address":"CPF JURONG BRANCH - STATION 2 21 JURONG EAST STREET 13 #01-01","type":"home"}},{"type":"Feature","geometry":{"type":"Point","coordinates":[103.8609695,1.2686885]},"properties":{"id":108,"name":"Student 108","pin":18947,"address":"CPF JURONG BRANCH - STATION 2 21 JURONG EAST STREET 13","type":"home"}},{"type":"Feature","geometry":{"type":"Point","coordinates":[103.787195,1.435152]},"properties":{"id":109,"name":"Student 109","pin":730900,"address":"CPF WOODLANDS BRANCH - STATION 1 900 SOUTH WOODLANDS DRIVE #01-02","type":"home"}},{"type":"Feature","geometry":{"type":"Point","coordinates":[103.828947,1.373071]},"properties":{"id":110,"name":"Student 110","pin":574400,"address":"CPF WOODLANDS BRANCH - STATION 1 900 SOUTH WOODLANDS DRIVE","type":"home"}},{"type":"Feature","geometry":{"type":"Point","coordinates":[103.787195,1.435152]},"properties":{"id":111,"name":"Student 111","pin":730900,"address":"CPF WOODLANDS BRANCH - STATION 2 900 SOUTH WOODLANDS DRIVE #01-02","type":"home"}},{"type":"Feature","geometry":{"type":"Point","coordinates":[103.842951,1.311009]},"properties":{"id":112,"name":"Student 112","pin":229841,"address":"CPF WOODLANDS BRANCH - STATION 2 900 SOUTH WOODLANDS DRIVE","type":"home"}},{"type":"Feature","geometry":{"type":"Point","coordinates":[103.749398,1.352618]},"properties":{"id":113,"name":"Student 113","pin":659206,"address":"CSC @ BUKIT BATOK 91 BUKIT BATOK WEST AVENUE 2","type":"home"}},{"type":"Feature","geometry":{"type":"Point","coordinates":[103.810934,1.292802]},"properties":{"id":114,"name":"Student 114","pin":147057,"address":"DAWSON PLACE - STATION 1 57 DAWSON ROAD #01-K1","type":"home"}},{"type":"Feature","geometry":{"type":"Point","coordinates":[103.8314425,1.3039538]},"properties":{"id":115,"name":"Student 115","pin":238801,"address":"DAWSON PLACE - STATION 1 57 DAWSON ROAD","type":"home"}},{"type":"Feature","geometry":{"type":"Point","coordinates":[103.810934,1.292802]},"properties":{"id":116,"name":"Student 116","pin":147057,"address":"DAWSON PLACE - STATION 2 57 DAWSON ROAD #01-K1","type":"home"}},{"type":"Feature","geometry":{"type":"Point","coordinates":[103.860054,1.309751]},"properties":{"id":117,"name":"Student 117","pin":207542,"address":"DAWSON PLACE - STATION 2 57 DAWSON ROAD","type":"home"}},{"type":"Feature","geometry":{"type":"Point","coordinates":[103.801381,1.273673]},"properties":{"id":118,"name":"Student 118","pin":119963,"address":"DBS ARC 460 ALEXANDRA ROAD","type":"home"}},{"type":"Feature","geometry":{"type":"Point","coordinates":[103.965234,1.332843]},"properties":{"id":119,"name":"Student 119","pin":486029,"address":"DBS ASIA HUB 2 CHANGI BUSINESS PARK CRESENT","type":"home"}},{"type":"Feature","geometry":{"type":"Point","coordinates":[103.846346,1.341253]},"properties":{"id":120,"name":"Student 120","pin":310109,"address":"DBS HDB CENTRE 520 LORONG 6 TOA PAYOH","type":"home"}},{"type":"Feature","geometry":{"type":"Point","coordinates":[103.855794,1.344551]},"properties":{"id":121,"name":"Student 121","pin":571150,"address":"DBS MBFC TOWER 3 - STATION 2 12 MARINA BOULEVARD LEVEL 3","type":"home"}},{"type":"Feature","geometry":{"type":"Point","coordinates":[103.771172,1.294229]},"properties":{"id":122,"name":"Student 122","pin":119260,"address":"DBS NUS YUSOF ISYAK HOUSE 10 KENT RIDGE","type":"home"}},{"type":"Feature","geometry":{"type":"Point","coordinates":[103.8491354,1.333295]},"properties":{"id":123,"name":"Student 123","pin":310178,"address":"DBS PENINSULA PLAZA 111 NORTH BRIDGE ROAD","type":"home"}},{"type":"Feature","geometry":{"type":"Point","coordinates":[-122.311436,47.107955]},"properties":{"id":124,"name":"Student 124","pin":98375,"address":"DBS QUAYSIDE ISLE @ SENTOSA COVE 31 OCEAN VIEW","type":"home"}},{"type":"Feature","geometry":{"type":"Point","coordinates":[103.8484981,1.3315682]},"properties":{"id":125,"name":"Student 125","pin":310190,"address":"DBS SERANGOON GARDEN VILLAGE 1 MAJU AVENUE","type":"home"}},{"type":"Feature","geometry":{"type":"Point","coordinates":[103.8891207,1.3369098]},"properties":{"id":126,"name":"Student 126","pin":534057,"address":"DBS TAI SENG 26 TAI SENG STREET #01-292","type":"home"}},{"type":"Feature","geometry":{"type":"Point","coordinates":[103.852359,1.333117]},"properties":{"id":127,"name":"Student 127","pin":319457,"address":"DBS TAI SENG 26 TAI SENG STREET","type":"home"}},{"type":"Feature","geometry":{"type":"Point","coordinates":[103.754847,1.328092]},"properties":{"id":128,"name":"Student 128","pin":609965,"address":"DBS TRADEHUB 21 18 BOON LAY WAY","type":"home"}},{"type":"Feature","geometry":{"type":"Point","coordinates":[103.748224,1.332345]},"properties":{"id":129,"name":"Student 129","pin":608838,"address":"DBS TT INTERNATIONAL TRADEPARK (THE FURNITURE MALL) 10 TOH GUAN ROAD","type":"home"}},{"type":"Feature","geometry":{"type":"Point","coordinates":[116.456008,40.020384]},"properties":{"id":130,"name":"Student 130","pin":100108,"address":"DEPOT HEIGHT SHOPPING CENTRE - STATION 1 108 DEPOT ROAD","type":"home"}},{"type":"Feature","geometry":{"type":"Point","coordinates":[116.456008,40.020384]},"properties":{"id":131,"name":"Student 131","pin":100108,"address":"DEPOT HEIGHT SHOPPING CENTRE - STATION 2  108 DEPOT ROAD","type":"home"}},{"type":"Feature","geometry":{"type":"Point","coordinates":[103.778798,1.311318]},"properties":{"id":132,"name":"Student 132","pin":138677,"address":"DOVER MRT STATION 200 COMMONWEALTH AVENUE WEST","type":"home"}},{"type":"Feature","geometry":{"type":"Point","coordinates":[103.935039,1.30668]},"properties":{"id":133,"name":"Student 133","pin":468960,"address":"EAST COAST LAGOON FOOD VILLAGE 1220 EAST COAST PARKWAY","type":"home"}},{"type":"Feature","geometry":{"type":"Point","coordinates":[103.915855,1.302508]},"properties":{"id":134,"name":"Student 134","pin":449877,"address":"EAST COAST PARK CARPARK C3 EAST COAST PARKWAY","type":"home"}},{"type":"Feature","geometry":{"type":"Point","coordinates":[103.90035,1.297597]},"properties":{"id":135,"name":"Student 135","pin":449874,"address":"EAST COAST PARK VISITOR CENTER EAST COAST PARK AREA BASEMENT 2, EAST COAST PARKWAY","type":"home"}},{"type":"Feature","geometry":{"type":"Point","coordinates":[103.754725,1.337078]},"properties":{"id":136,"name":"Student 136","pin":608586,"address":"ENTERPRISE HUB 48 TOH GUAN ROAD EAST","type":"home"}},{"type":"Feature","geometry":{"type":"Point","coordinates":[103.807103,1.286109]},"properties":{"id":137,"name":"Student 137","pin":159466,"address":"ENV JALAN BUKIT MERAH 4545 JALAN BUKIT MERAH","type":"home"}},{"type":"Feature","geometry":{"type":"Point","coordinates":[103.939687,1.328266]},"properties":{"id":138,"name":"Student 138","pin":469667,"address":"ESSO BEDOK NORTH 99 BEDOK NORTH ROAD","type":"home"}},{"type":"Feature","geometry":{"type":"Point","coordinates":[103.75054,1.366663]},"properties":{"id":139,"name":"Student 139","pin":659084,"address":"ESSO BUKIT BATOK 813 BUKIT BATOK WEST AVENUE 5","type":"home"}},{"type":"Feature","geometry":{"type":"Point","coordinates":[103.750136,1.377611]},"properties":{"id":140,"name":"Student 140","pin":688786,"address":"ESSO CHOA CHU KANG WAY 31 CHOA CHU KANG WAY","type":"home"}},{"type":"Feature","geometry":{"type":"Point","coordinates":[103.907848,1.307947]},"properties":{"id":141,"name":"Student 141","pin":428931,"address":"ESSO EAST COAST 239\/255 EAST COAST ROAD","type":"home"}},{"type":"Feature","geometry":{"type":"Point","coordinates":[103.888845,1.31437]},"properties":{"id":142,"name":"Student 142","pin":389569,"address":"ESSO GEYLANG LORONG 38 638 GEYLANG ROAD","type":"home"}},{"type":"Feature","geometry":{"type":"Point","coordinates":[103.724768,1.325017]},"properties":{"id":143,"name":"Student 143","pin":619594,"address":"ESSO JALAN AHMAD IBRAHIM 302 JALAN AHMAD IBRAHIM","type":"home"}},{"type":"Feature","geometry":{"type":"Point","coordinates":[103.774764,1.339937]},"properties":{"id":144,"name":"Student 144","pin":598577,"address":"ESSO JURONG KECHIL 37 JALAN JURONG KECHIL","type":"home"}},{"type":"Feature","geometry":{"type":"Point","coordinates":[103.747007,1.395174]},"properties":{"id":145,"name":"Student 145","pin":689716,"address":"ESSO M-D PETROLEUM 50 CHOA CHU KANG DRIVE","type":"home"}},{"type":"Feature","geometry":{"type":"Point","coordinates":[103.871876,1.328689]},"properties":{"id":146,"name":"Student 146","pin":348501,"address":"ESSO MACPHERSON 101 MACPHERSON ROAD","type":"home"}},{"type":"Feature","geometry":{"type":"Point","coordinates":[103.824568,1.4402759]},"properties":{"id":147,"name":"Student 147","pin":758452,"address":"ESSO SEMBAWANG 593 SEMBAWANG ROAD","type":"home"}},{"type":"Feature","geometry":{"type":"Point","coordinates":[103.969784,1.359713]},"properties":{"id":148,"name":"Student 148","pin":507662,"address":"ESSO UPPER CHANGI ROAD 955 UPPER CHANGI ROAD NORTH","type":"home"}},{"type":"Feature","geometry":{"type":"Point","coordinates":[103.7844756,1.4310911]},"properties":{"id":149,"name":"Student 149","pin":739066,"address":"ESSO WOODLANDS 50 WOODLANDS AVENUE 1","type":"home"}},{"type":"Feature","geometry":{"type":"Point","coordinates":[103.8397473,1.4316923]},"properties":{"id":150,"name":"Student 150","pin":768888,"address":"ESSO YISHUN 10 YISHUN AVENUE 9","type":"home"}},{"type":"Feature","geometry":{"type":"Point","coordinates":[103.915479,1.332658]},"properties":{"id":151,"name":"Student 151","pin":479220,"address":"EUNOS COMMUNITY CLUB 180 BEDOK RESERVOIR ROAD","type":"home"}},{"type":"Feature","geometry":{"type":"Point","coordinates":[103.902892,1.319782]},"properties":{"id":152,"name":"Student 152","pin":409423,"address":"EUNOS MRT STATION 30 EUNOS CRESENT","type":"home"}},{"type":"Feature","geometry":{"type":"Point","coordinates":[103.961688,1.334717]},"properties":{"id":153,"name":"Student 153","pin":486065,"address":"EXPO MRT STATION 21 CHANGI SOUTH AVENUE 1","type":"home"}},{"type":"Feature","geometry":{"type":"Point","coordinates":[103.770558,1.383802]},"properties":{"id":154,"name":"Student 154","pin":670445,"address":"FAJAR SHOPPING CENTRE - STATION 1 445 FAJAR ROAD","type":"home"}},{"type":"Feature","geometry":{"type":"Point","coordinates":[103.770558,1.383802]},"properties":{"id":155,"name":"Student 155","pin":670445,"address":"FAJAR SHOPPING CENTRE - STATION 2 445 FAJAR ROAD","type":"home"}},{"type":"Feature","geometry":{"type":"Point","coordinates":[103.726131,1.381899]},"properties":{"id":156,"name":"Student 156","pin":699008,"address":"FARMART CENTRE 67 SUNGEI TENGAH ROAD #B3-K1","type":"home"}},{"type":"Feature","geometry":{"type":"Point","coordinates":[103.8990709,1.3155683]},"properties":{"id":157,"name":"Student 157","pin":420002,"address":"FARMART CENTRE 67 SUNGEI TENGAH ROAD","type":"home"}},{"type":"Feature","geometry":{"type":"Point","coordinates":[103.936612,1.330726]},"properties":{"id":158,"name":"Student 158","pin":469644,"address":"FENGSHAN COMMUNITY CLUB 20 BEDOK NORTH STREET 2","type":"home"}},{"type":"Feature","geometry":{"type":"Point","coordinates":[103.78756,1.299036]},"properties":{"id":159,"name":"Student 159","pin":138633,"address":"FUSIONPOLIS 3 FUSIONPOLIS WAY","type":"home"}},{"type":"Feature","geometry":{"type":"Point","coordinates":[103.698195,1.349156]},"properties":{"id":160,"name":"Student 160","pin":640762,"address":"GEK POH SHOPPING CENTRE - STATION 1 762 JURONG WEST STREET 75","type":"home"}},{"type":"Feature","geometry":{"type":"Point","coordinates":[103.698195,1.349156]},"properties":{"id":161,"name":"Student 161","pin":640762,"address":"GEK POH SHOPPING CENTRE - STATION 2 762 JURONG WEST STREET 75","type":"home"}},{"type":"Feature","geometry":{"type":"Point","coordinates":[103.78794,1.296576]},"properties":{"id":162,"name":"Student 162","pin":139941,"address":"GEMPLUS OFFICE 12 AYER RAJAH CRESCENT","type":"home"}},{"type":"Feature","geometry":{"type":"Point","coordinates":[103.898214,1.316716]},"properties":{"id":163,"name":"Student 163","pin":402001,"address":"GEYLANG SERAI MARKET & FOOD CENTRE 1 GEYLANG SERAI","type":"home"}},{"type":"Feature","geometry":{"type":"Point","coordinates":[103.8508937,1.3490119]},"properties":{"id":164,"name":"Student 164","pin":570197,"address":"GIANT ANG MO KIO 181 ANG MO KIO AVENUE 5","type":"home"}},{"type":"Feature","geometry":{"type":"Point","coordinates":[103.75726,1.346808]},"properties":{"id":165,"name":"Student 165","pin":650284,"address":"GIANT BUKIT BATOK 284 BUKIT BATOK EAST AVENUE 3 #04-15","type":"home"}},{"type":"Feature","geometry":{"type":"Point","coordinates":[103.8990709,1.3155683]},"properties":{"id":166,"name":"Student 166","pin":420002,"address":"GIANT BUKIT BATOK 284 BUKIT BATOK EAST AVENUE 3","type":"home"}},{"type":"Feature","geometry":{"type":"Point","coordinates":[-122.492277,46.575603]},"properties":{"id":167,"name":"Student 167","pin":98585,"address":"GIANT VIVOCITY 1 HARBOUR FRONT WALK","type":"home"}},{"type":"Feature","geometry":{"type":"Point","coordinates":[103.903484,1.317256]},"properties":{"id":168,"name":"Student 168","pin":419734,"address":"GREAT EASTERN CHANGI 200 CHANGI ROAD","type":"home"}},{"type":"Feature","geometry":{"type":"Point","coordinates":[103.76636,1.384827]},"properties":{"id":169,"name":"Student 169","pin":671524,"address":"GREENRIDGE SHOPPING CENTRE - STATION 1 524A JELAPANG ROAD","type":"home"}},{"type":"Feature","geometry":{"type":"Point","coordinates":[103.76636,1.384827]},"properties":{"id":170,"name":"Student 170","pin":671524,"address":"GREENRIDGE SHOPPING CENTRE - STATION 2 524A JELAPANG ROAD","type":"home"}},{"type":"Feature","geometry":{"type":"Point","coordinates":[103.857435,1.3321]},"properties":{"id":171,"name":"Student 171","pin":310260,"address":"GV GRAND GREAT WORLD CITY 1 KIM SENG PROMENADE","type":"home"}},{"type":"Feature","geometry":{"type":"Point","coordinates":[103.84956,1.334377]},"properties":{"id":172,"name":"Student 172","pin":314079,"address":"GV MARINA SQUARE 5A RAFFLES AVENUE","type":"home"}},{"type":"Feature","geometry":{"type":"Point","coordinates":[103.844651,1.358271]},"properties":{"id":173,"name":"Student 173","pin":570282,"address":"GV PLAZA SINGAPURA 68 ORCHARD ROAD","type":"home"}},{"type":"Feature","geometry":{"type":"Point","coordinates":[103.945245,1.352661]},"properties":{"id":174,"name":"Student 174","pin":529510,"address":"GV TAMPINES MALL 4 TAMPINES CENTRAL 5 #04-17","type":"home"}},{"type":"Feature","geometry":{"type":"Point","coordinates":[103.831573,1.305487]},"properties":{"id":175,"name":"Student 175","pin":238868,"address":"GV TAMPINES MALL 4 TAMPINES CENTRAL 5","type":"home"}},{"type":"Feature","geometry":{"type":"Point","coordinates":[103.845774,1.337527]},"properties":{"id":176,"name":"Student 176","pin":311125,"address":"GV TIONG BAHRU PLAZA 302 TIONG BAHRU ROAD","type":"home"}},{"type":"Feature","geometry":{"type":"Point","coordinates":[103.836348,1.4300139]},"properties":{"id":177,"name":"Student 177","pin":768794,"address":"GV YISHUN 51 YISHUN CENTRAL 1","type":"home"}},{"type":"Feature","geometry":{"type":"Point","coordinates":[103.957429,1.369427]},"properties":{"id":178,"name":"Student 178","pin":510443,"address":"HDB PASIR RIS BRANCH OFFICE 443 PASIR RIS DRIVE 6 #02-00","type":"home"}},{"type":"Feature","geometry":{"type":"Point","coordinates":[103.8357916,1.302806]},"properties":{"id":179,"name":"Student 179","pin":238873,"address":"HDB PASIR RIS BRANCH OFFICE 443 PASIR RIS DRIVE 6","type":"home"}},{"type":"Feature","geometry":{"type":"Point","coordinates":[108.630661,22.616532]},"properties":{"id":180,"name":"Student 180","pin":530205,"address":"HEARTLAND MALL- KOVAN - STATION 1 205 HOUGANG STREET 21","type":"home"}},{"type":"Feature","geometry":{"type":"Point","coordinates":[108.630661,22.616532]},"properties":{"id":181,"name":"Student 181","pin":530205,"address":"HEARTLAND MALL- KOVAN - STATION 2 205 HOUGANG STREET 21","type":"home"}},{"type":"Feature","geometry":{"type":"Point","coordinates":[103.7953129,1.310177]},"properties":{"id":182,"name":"Student 182","pin":278967,"address":"HOLLAND ROAD SHOPPING CENTRE 211 HOLLAND AVENUE","type":"home"}},{"type":"Feature","geometry":{"type":"Point","coordinates":[103.772851,1.379094]},"properties":{"id":183,"name":"Student 183","pin":670256,"address":"HOLLAND-BUKIT PANJANG TOWN COUNCIL OFFICE - STATION 1 256 BANGKIT ROAD","type":"home"}},{"type":"Feature","geometry":{"type":"Point","coordinates":[103.772851,1.379094]},"properties":{"id":184,"name":"Student 184","pin":670256,"address":"HOLLAND-BUKIT PANJANG TOWN COUNCIL OFFICE - STATION 2 256 BANGKIT ROAD","type":"home"}},{"type":"Feature","geometry":{"type":"Point","coordinates":[103.748504,1.365784]},"properties":{"id":185,"name":"Student 185","pin":659003,"address":"HOMETEAM NS BUKIT BATOK  2 BUKIT BATOK WEST AVENUE 7","type":"home"}},{"type":"Feature","geometry":{"type":"Point","coordinates":[103.744413,1.377542]},"properties":{"id":186,"name":"Student 186","pin":680253,"address":"HONG KAH TOWN COUNCIL - KEAT HONG SHOPPING CENTRE 253 CHOA CHU KANG AVENUE 1","type":"home"}},{"type":"Feature","geometry":{"type":"Point","coordinates":[103.753025,1.380004]},"properties":{"id":187,"name":"Student 187","pin":680140,"address":"HONG KAH TOWN COUNCIL 140 TECK WHYE LANE #01-00","type":"home"}},{"type":"Feature","geometry":{"type":"Point","coordinates":[103.8622199,1.302638]},"properties":{"id":188,"name":"Student 188","pin":199597,"address":"HONG KAH TOWN COUNCIL 140 TECK WHYE LANE","type":"home"}},{"type":"Feature","geometry":{"type":"Point","coordinates":[103.751101,1.359015]},"properties":{"id":189,"name":"Student 189","pin":650372,"address":"HONG KAH TOWN COUNCIL 372 BUKIT BATOK STREET 31 #01-00","type":"home"}},{"type":"Feature","geometry":{"type":"Point","coordinates":[103.8448938,1.2917766]},"properties":{"id":190,"name":"Student 190","pin":179030,"address":"HONG KAH TOWN COUNCIL 372 BUKIT BATOK STREET 31","type":"home"}},{"type":"Feature","geometry":{"type":"Point","coordinates":[103.691672,1.341727]},"properties":{"id":191,"name":"Student 191","pin":640962,"address":"HONG KAH TOWN COUNCIL 962 JURONG WEST STREET 91","type":"home"}},{"type":"Feature","geometry":{"type":"Point","coordinates":[103.879482,1.376022]},"properties":{"id":192,"name":"Student 192","pin":538692,"address":"HOUGANG 1 1 HOUGANG STREET 91","type":"home"}},{"type":"Feature","geometry":{"type":"Point","coordinates":[103.888221,1.379502]},"properties":{"id":193,"name":"Student 193","pin":538719,"address":"HOUGANG GREEN SHOPPING MALL 21 HOUGANG STREET 51","type":"home"}},{"type":"Feature","geometry":{"type":"Point","coordinates":[103.893938,1.372629]},"properties":{"id":194,"name":"Student 194","pin":538766,"address":"HOUGANG MALL 90 HOUGANG AVENUE 10","type":"home"}},{"type":"Feature","geometry":{"type":"Point","coordinates":[103.889024,1.370032]},"properties":{"id":195,"name":"Student 195","pin":538829,"address":"HOUGANG POLYCLINICS 89 HOUGANG AVENUE 4","type":"home"}},{"type":"Feature","geometry":{"type":"Point","coordinates":[103.749234,1.3276]},"properties":{"id":196,"name":"Student 196","pin":609935,"address":"ICON @ INTERNATIONAL BUSINESS PARK 3A INTERNATIONAL BUSINESS PARK","type":"home"}},{"type":"Feature","geometry":{"type":"Point","coordinates":[103.8453817,1.3406079]},"properties":{"id":197,"name":"Student 197","pin":319758,"address":"ICON VILLAGE 12 GOPENG STREET","type":"home"}},{"type":"Feature","geometry":{"type":"Point","coordinates":[103.886929,1.328989]},"properties":{"id":198,"name":"Student 198","pin":370036,"address":"IECON ACTIVE EXPRESS MART 36 CIRCUIT ROAD #01-412","type":"home"}},{"type":"Feature","geometry":{"type":"Point","coordinates":[103.8013131,1.278715]},"properties":{"id":199,"name":"Student 199","pin":119578,"address":"IECON ACTIVE EXPRESS MART 36 CIRCUIT ROAD","type":"home"}},{"type":"Feature","geometry":{"type":"Point","coordinates":[103.8557365,1.3003191]},"properties":{"id":200,"name":"Student 200","pin":188024,"address":"IECON ACTIVE SUPERMARKET 74 WHAMPOA DRIVE","type":"home"}},{"type":"Feature","geometry":{"type":"Point","coordinates":[103.939517,1.348627]},"properties":{"id":201,"name":"Student 201","pin":520915,"address":"IECON ACTUA TRADING AND SUPPLIES 915 TAMPINES STREET 91 #01-43","type":"home"}},{"type":"Feature","geometry":{"type":"Point","coordinates":[103.852376,1.293171]},"properties":{"id":202,"name":"Student 202","pin":179100,"address":"IECON ACTUA TRADING AND SUPPLIES 915 TAMPINES STREET 91","type":"home"}},{"type":"Feature","geometry":{"type":"Point","coordinates":[103.889867,1.387423]},"properties":{"id":203,"name":"Student 203","pin":542303,"address":"IECON ANCHORVALE MINIMART 303 ANCHORVALE LINK #01-04","type":"home"}},{"type":"Feature","geometry":{"type":"Point","coordinates":[103.8565897,1.3113982]},"properties":{"id":204,"name":"Student 204","pin":208539,"address":"IECON ANCHORVALE MINIMART 303 ANCHORVALE LINK","type":"home"}},{"type":"Feature","geometry":{"type":"Point","coordinates":[103.833179,1.425443]},"properties":{"id":205,"name":"Student 205","pin":760761,"address":"IECON ANN TENG HENG 761 YISHUN STREET 72 #01-344","type":"home"}},{"type":"Feature","geometry":{"type":"Point","coordinates":[103.784068,1.336112]},"properties":{"id":206,"name":"Student 206","pin":589471,"address":"IECON ANN TENG HENG 761 YISHUN STREET 72","type":"home"}},{"type":"Feature","geometry":{"type":"Point","coordinates":[103.830921,1.43708]},"properties":{"id":207,"name":"Student 207","pin":760173,"address":"IECON ASERET TRADING 173 YISHUN AVENUE 7 #01-825","type":"home"}},{"type":"Feature","geometry":{"type":"Point","coordinates":[103.873692,1.36089]},"properties":{"id":208,"name":"Student 208","pin":545614,"address":"IECON ASERET TRADING 173 YISHUN AVENUE 7","type":"home"}},{"type":"Feature","geometry":{"type":"Point","coordinates":[103.8557469,1.30031]},"properties":{"id":209,"name":"Student 209","pin":188022,"address":"IECON BAN SENG PROVISIONS 116 TOA PAYOH LORONG 2","type":"home"}},{"type":"Feature","geometry":{"type":"Point","coordinates":[103.951694,1.347603]},"properties":{"id":210,"name":"Student 210","pin":520280,"address":"IECON BEGONIA SUPERMARKET 280 TAMPINES STREET 22 #01-244","type":"home"}},{"type":"Feature","geometry":{"type":"Point","coordinates":[103.8565897,1.3113982]},"properties":{"id":211,"name":"Student 211","pin":208539,"address":"IECON BEGONIA SUPERMARKET 280 TAMPINES STREET 22","type":"home"}},{"type":"Feature","geometry":{"type":"Point","coordinates":[103.8333708,1.4276423]},"properties":{"id":212,"name":"Student 212","pin":760748,"address":"IECON CHAN LIAN SENG 748 YISHUN STREET 72","type":"home"}},{"type":"Feature","geometry":{"type":"Point","coordinates":[103.886586,1.352906]},"properties":{"id":213,"name":"Student 213","pin":530124,"address":"IECON CHIN HUAT SIONG KEE 124 HOUGANG AVENUE 1 #01-1432","type":"home"}},{"type":"Feature","geometry":{"type":"Point","coordinates":[103.856214,1.315722]},"properties":{"id":214,"name":"Student 214","pin":217664,"address":"IECON CHIN HUAT SIONG KEE 124 HOUGANG AVENUE 1","type":"home"}},{"type":"Feature","geometry":{"type":"Point","coordinates":[103.875584,1.350669]},"properties":{"id":215,"name":"Student 215","pin":531002,"address":"IECON CHNG WAH SENG 2 LORONG LEW LIAN #01-42","type":"home"}},{"type":"Feature","geometry":{"type":"Point","coordinates":[103.8448626,1.2901676]},"properties":{"id":216,"name":"Student 216","pin":179019,"address":"IECON CHNG WAH SENG 2 LORONG LEW LIAN","type":"home"}},{"type":"Feature","geometry":{"type":"Point","coordinates":[109.135052,22.956903]},"properties":{"id":217,"name":"Student 217","pin":530309,"address":"IECON CHNG WAH SENG 309 HOUGANG AVENUE 5 #01-291","type":"home"}},{"type":"Feature","geometry":{"type":"Point","coordinates":[103.859222,1.342819]},"properties":{"id":218,"name":"Student 218","pin":579701,"address":"IECON CHNG WAH SENG 309 HOUGANG AVENUE 5","type":"home"}},{"type":"Feature","geometry":{"type":"Point","coordinates":[103.809689,1.286355]},"properties":{"id":219,"name":"Student 219","pin":152028,"address":"IECON CHOP CHUAN LEONG 28 JALAN BUKIT MERAH #01-4466","type":"home"}},{"type":"Feature","geometry":{"type":"Point","coordinates":[103.8448938,1.2917766]},"properties":{"id":220,"name":"Student 220","pin":179030,"address":"IECON CHOP CHUAN LEONG 28 JALAN BUKIT MERAH","type":"home"}},{"type":"Feature","geometry":{"type":"Point","coordinates":[103.854302,1.299629]},"properties":{"id":221,"name":"Student 221","pin":188067,"address":"IECON CHUA YAN KEE 49 TANGLIN HALT ROAD","type":"home"}},{"type":"Feature","geometry":{"type":"Point","coordinates":[103.883808,1.378941]},"properties":{"id":222,"name":"Student 222","pin":530911,"address":"IECON CHY YUAN MINI SUPERMARKET 911 HOUGANG STREET 91 #01-58","type":"home"}},{"type":"Feature","geometry":{"type":"Point","coordinates":[103.849068,1.349575]},"properties":{"id":223,"name":"Student 223","pin":579838,"address":"IECON CHY YUAN MINI SUPERMARKET 911 HOUGANG STREET 91","type":"home"}},{"type":"Feature","geometry":{"type":"Point","coordinates":[103.854302,1.299629]},"properties":{"id":224,"name":"Student 224","pin":188067,"address":"IECON FAMILY STORE 632 ANG MO KIO AVENUE 4","type":"home"}},{"type":"Feature","geometry":{"type":"Point","coordinates":[103.961193,1.351945]},"properties":{"id":225,"name":"Student 225","pin":520343,"address":"IECON GOOD WELL SUPERMARKET 343 TAMPINES STREET 33 #01-318","type":"home"}},{"type":"Feature","geometry":{"type":"Point","coordinates":[103.847986,1.2772297]},"properties":{"id":226,"name":"Student 226","pin":68897,"address":"IECON GOOD WELL SUPERMARKET 343 TAMPINES STREET 33","type":"home"}},{"type":"Feature","geometry":{"type":"Point","coordinates":[108.731467,23.669527]},"properties":{"id":227,"name":"Student 227","pin":530511,"address":"IECON GUAT SENG HUAT 511 HOUGANG AVENUE 10 #01-149","type":"home"}},{"type":"Feature","geometry":{"type":"Point","coordinates":[103.8554939,1.335755]},"properties":{"id":228,"name":"Student 228","pin":68897,"address":"IECON GUAT SENG HUAT 511 HOUGANG AVENUE 10","type":"home"}},{"type":"Feature","geometry":{"type":"Point","coordinates":[103.778958,1.339001]},"properties":{"id":229,"name":"Student 229","pin":588996,"address":"IECON HAO GUAN MINI MART 505 ANG MO KIO AVENUE 8","type":"home"}},{"type":"Feature","geometry":{"type":"Point","coordinates":[103.841045,1.420297]},"properties":{"id":230,"name":"Student 230","pin":760664,"address":"IECON HOCK TAI CHEONG 664 YISHUN AVENUE 4 #01-279","type":"home"}},{"type":"Feature","geometry":{"type":"Point","coordinates":[103.833358,1.307249]},"properties":{"id":231,"name":"Student 231","pin":228213,"address":"IECON HOCK TAI CHEONG 664 YISHUN AVENUE 4","type":"home"}},{"type":"Feature","geometry":{"type":"Point","coordinates":[103.828487,1.431578]},"properties":{"id":232,"name":"Student 232","pin":760103,"address":"IECON KIM ENG MINI SUPERMARKET 103 YISHUN RING ROAD #01-79","type":"home"}},{"type":"Feature","geometry":{"type":"Point","coordinates":[103.8286,1.3062153]},"properties":{"id":233,"name":"Student 233","pin":238884,"address":"IECON KIM ENG MINI SUPERMARKET 103 YISHUN RING ROAD","type":"home"}},{"type":"Feature","geometry":{"type":"Point","coordinates":[103.885268,1.327882]},"properties":{"id":234,"name":"Student 234","pin":370078,"address":"IECON LI FENG YUAN 78 CIRCUIT ROAD #01-484","type":"home"}},{"type":"Feature","geometry":{"type":"Point","coordinates":[103.854614,1.3372679]},"properties":{"id":235,"name":"Student 235","pin":319378,"address":"IECON LI FENG YUAN 78 CIRCUIT ROAD","type":"home"}},{"type":"Feature","geometry":{"type":"Point","coordinates":[103.717685,1.351389]},"properties":{"id":236,"name":"Student 236","pin":640453,"address":"IECON LIM THIONG BENG 453 JURONG WEST STREET 42 #01-K1","type":"home"}},{"type":"Feature","geometry":{"type":"Point","coordinates":[103.849171,1.307297]},"properties":{"id":237,"name":"Student 237","pin":219428,"address":"IECON LIM THIONG BENG 453 JURONG WEST STREET 42","type":"home"}},{"type":"Feature","geometry":{"type":"Point","coordinates":[103.893518,1.379157]},"properties":{"id":238,"name":"Student 238","pin":530440,"address":"IECON LIN DA MINI 440 HOUGANG AVENUE 8 #B1-1567","type":"home"}},{"type":"Feature","geometry":{"type":"Point","coordinates":[103.8554939,1.335755]},"properties":{"id":239,"name":"Student 239","pin":68897,"address":"IECON LIN DA MINI 440 HOUGANG AVENUE 8","type":"home"}},{"type":"Feature","geometry":{"type":"Point","coordinates":[103.69787,1.345712]},"properties":{"id":240,"name":"Student 240","pin":640727,"address":"IECON MING HUAT MINIMART 727 JURONG WEST AVENUE 5 #01-190","type":"home"}},{"type":"Feature","geometry":{"type":"Point","coordinates":[103.849171,1.307297]},"properties":{"id":241,"name":"Student 241","pin":219428,"address":"IECON MING HUAT MINIMART 727 JURONG WEST AVENUE 5","type":"home"}},{"type":"Feature","geometry":{"type":"Point","coordinates":[103.931279,1.35219]},"properties":{"id":242,"name":"Student 242","pin":520878,"address":"IECON OM SAI MINIMART 878 TAMPINES AVENUE 8 #01-318","type":"home"}},{"type":"Feature","geometry":{"type":"Point","coordinates":[103.827307,1.279541]},"properties":{"id":243,"name":"Student 243","pin":160133,"address":"IECON OM SAI MINIMART 878 TAMPINES AVENUE 8","type":"home"}},{"type":"Feature","geometry":{"type":"Point","coordinates":[103.8334007,1.3363192]},"properties":{"id":244,"name":"Student 244","pin":299939,"address":"IECON ONG JIT SANG 203 TOA PAYOH NORTH","type":"home"}},{"type":"Feature","geometry":{"type":"Point","coordinates":[103.8362269,1.421807]},"properties":{"id":245,"name":"Student 245","pin":760605,"address":"IECON PIAK LAN HIONG 605 YISHUN STREET 61 #01-311","type":"home"}},{"type":"Feature","geometry":{"type":"Point","coordinates":[103.843634,1.2732079]},"properties":{"id":246,"name":"Student 246","pin":79907,"address":"IECON PIAK LAN HIONG 605 YISHUN STREET 61","type":"home"}},{"type":"Feature","geometry":{"type":"Point","coordinates":[103.960233,1.358614]},"properties":{"id":247,"name":"Student 247","pin":520369,"address":"IECON RAMYAA 369 TAMPINES STREET 34 #01-21","type":"home"}},{"type":"Feature","geometry":{"type":"Point","coordinates":[3.854893,1.300599]},"properties":{"id":248,"name":"Student 248","pin":188867,"address":"IECON RAMYAA 369 TAMPINES STREET 34","type":"home"}},{"type":"Feature","geometry":{"type":"Point","coordinates":[103.815713,1.288515]},"properties":{"id":249,"name":"Student 249","pin":154075,"address":"IECON RONG XING PTE LTD 75D REDHILL ROAD #01-92","type":"home"}},{"type":"Feature","geometry":{"type":"Point","coordinates":[103.8362765,1.3565169]},"properties":{"id":250,"name":"Student 250","pin":575701,"address":"IECON RONG XING PTE LTD 75D REDHILL ROAD","type":"home"}},{"type":"Feature","geometry":{"type":"Point","coordinates":[103.8398305,1.3019594]},"properties":{"id":251,"name":"Student 251","pin":238843,"address":"IECON SAN CHUNG MINIMART 24 BENDEMEER ROAD","type":"home"}},{"type":"Feature","geometry":{"type":"Point","coordinates":[103.770778,1.313528]},"properties":{"id":252,"name":"Student 252","pin":120354,"address":"IECON SIN YEW LEONG 354 CLEMENTI AVENUE 2 #01-223","type":"home"}},{"type":"Feature","geometry":{"type":"Point","coordinates":[103.8552787,1.2800785]},"properties":{"id":253,"name":"Student 253","pin":18982,"address":"IECON SIN YEW LEONG 354 CLEMENTI AVENUE 2","type":"home"}},{"type":"Feature","geometry":{"type":"Point","coordinates":[103.8398305,1.3019594]},"properties":{"id":254,"name":"Student 254","pin":238843,"address":"IECON TAY YONG HUAT 128 ANG MO KIO AVENUE 3","type":"home"}},{"type":"Feature","geometry":{"type":"Point","coordinates":[103.808521,1.273906]},"properties":{"id":255,"name":"Student 255","pin":100077,"address":"IECON TECK GUAN 77 TELOK BLANGAH DRIVE #01-228","type":"home"}},{"type":"Feature","geometry":{"type":"Point","coordinates":[103.854629,1.276274]},"properties":{"id":256,"name":"Student 256","pin":18990,"address":"IECON TECK GUAN 77 TELOK BLANGAH DRIVE","type":"home"}},{"type":"Feature","geometry":{"type":"Point","coordinates":[103.8448952,1.273228]},"properties":{"id":257,"name":"Student 257","pin":79120,"address":"IECON TONG SENG HUAT 234 TOA PAYOH LORONG 8","type":"home"}},{"type":"Feature","geometry":{"type":"Point","coordinates":[103.777659,1.438646]},"properties":{"id":258,"name":"Student 258","pin":730136,"address":"IECON UNITED SUPERMARKET 136 MARSILING ROAD #01-2188","type":"home"}},{"type":"Feature","geometry":{"type":"Point","coordinates":[103.850074,1.29133]},"properties":{"id":259,"name":"Student 259","pin":179097,"address":"IECON UNITED SUPERMARKET 136 MARSILING ROAD","type":"home"}},{"type":"Feature","geometry":{"type":"Point","coordinates":[103.857002,1.292937]},"properties":{"id":260,"name":"Student 260","pin":39593,"address":"IECON WEI ANN 107 ANG MO KIO AVE 4","type":"home"}},{"type":"Feature","geometry":{"type":"Point","coordinates":[103.857002,1.292937]},"properties":{"id":261,"name":"Student 261","pin":39593,"address":"IECON YEO SOON LAI MINIMART 554 ANG MO KIO AVENUE 10","type":"home"}},{"type":"Feature","geometry":{"type":"Point","coordinates":[103.857002,1.292937]},"properties":{"id":262,"name":"Student 262","pin":39593,"address":"IEZHEN MINIMART 443 ANG MO KIO AVENUE 10","type":"home"}},{"type":"Feature","geometry":{"type":"Point","coordinates":[103.805666,1.288155]},"properties":{"id":263,"name":"Student 263","pin":159965,"address":"IKEA ALEXANDRA 317 ALEXANDRA ROAD","type":"home"}},{"type":"Feature","geometry":{"type":"Point","coordinates":[103.746872,1.334938]},"properties":{"id":264,"name":"Student 264","pin":609601,"address":"IMM LEVEL 1 - STATION 2 2 JURONG EAST STREET 21","type":"home"}},{"type":"Feature","geometry":{"type":"Point","coordinates":[103.746872,1.334938]},"properties":{"id":265,"name":"Student 265","pin":609601,"address":"IMM LEVEL 1 - STATION 3 2 JURONG EAST STREET 21","type":"home"}},{"type":"Feature","geometry":{"type":"Point","coordinates":[103.746872,1.334938]},"properties":{"id":266,"name":"Student 266","pin":609601,"address":"IMM LEVEL 2 - STATION 1 2 JURONG EAST STREET 21","type":"home"}},{"type":"Feature","geometry":{"type":"Point","coordinates":[103.885005,1.383077]},"properties":{"id":267,"name":"Student 267","pin":539747,"address":"INSTITUTE OF MENTAL HEALTH 10 BUANGKOK VIEW","type":"home"}},{"type":"Feature","geometry":{"type":"Point","coordinates":[103.746759,1.325937]},"properties":{"id":268,"name":"Student 268","pin":609924,"address":"IQUEST @ INTERNATIONAL BUSINESS PARK 27 INTERNATIONAL BUSINESS PARK","type":"home"}},{"type":"Feature","geometry":{"type":"Point","coordinates":[103.751746,1.374852]},"properties":{"id":269,"name":"Student 269","pin":688236,"address":"ITE COLLEGE WEST (CHOA CHU KANG) 1 CHOA CHU KANG GROVE","type":"home"}},{"type":"Feature","geometry":{"type":"Point","coordinates":[103.740277,1.33352]},"properties":{"id":270,"name":"Student 270","pin":609731,"address":"J CUBE - STATION 1 2 JURONG EAST CENTRAL 1 BASEMENT 1","type":"home"}},{"type":"Feature","geometry":{"type":"Point","coordinates":[103.740277,1.33352]},"properties":{"id":271,"name":"Student 271","pin":609731,"address":"J CUBE - STATION 2 2 JURONG EAST CENTRAL 1 LEVEL 4","type":"home"}},{"type":"Feature","geometry":{"type":"Point","coordinates":[103.857002,1.292937]},"properties":{"id":272,"name":"Student 272","pin":39593,"address":"JALAN BESAR STADIUM 100 TYRWHITT ROAD","type":"home"}},{"type":"Feature","geometry":{"type":"Point","coordinates":[103.7433378,1.3322805]},"properties":{"id":273,"name":"Student 273","pin":608550,"address":"JEM 52 JURONG GATEWAY ROAD #B1-K1","type":"home"}},{"type":"Feature","geometry":{"type":"Point","coordinates":[103.8592169,1.2862989]},"properties":{"id":274,"name":"Student 274","pin":18970,"address":"JEM 52 JURONG GATEWAY ROAD","type":"home"}},{"type":"Feature","geometry":{"type":"Point","coordinates":[107.910563,23.38696]},"properties":{"id":275,"name":"Student 275","pin":530108,"address":"JIASHAN BUILDING CONTRACTOR 108 HOUGANG AVENUE 1","type":"home"}},{"type":"Feature","geometry":{"type":"Point","coordinates":[103.741504,1.331037]},"properties":{"id":276,"name":"Student 276","pin":609434,"address":"JTC SUMMIT 8 JURONG TOWN HALL ROAD","type":"home"}},{"type":"Feature","geometry":{"type":"Point","coordinates":[103.760383,1.37978]},"properties":{"id":277,"name":"Student 277","pin":677899,"address":"JUNCTION 10 1 WOODLANDS ROAD","type":"home"}},{"type":"Feature","geometry":{"type":"Point","coordinates":[103.688374,1.33915]},"properties":{"id":278,"name":"Student 278","pin":649042,"address":"JURONG CAMP 2 29 JURONG WEST STREET 91, AFPN 1582","type":"home"}},{"type":"Feature","geometry":{"type":"Point","coordinates":[103.732232,1.316245]},"properties":{"id":279,"name":"Student 279","pin":608560,"address":"JURONG DORMITORY 36 PENJURU PLACE","type":"home"}},{"type":"Feature","geometry":{"type":"Point","coordinates":[103.706464,1.339874]},"properties":{"id":280,"name":"Student 280","pin":648886,"address":"JURONG POINT - STATION 1 1 JURONG WEST CENTRAL LEVEL 1","type":"home"}},{"type":"Feature","geometry":{"type":"Point","coordinates":[103.706464,1.339874]},"properties":{"id":281,"name":"Student 281","pin":648886,"address":"JURONG POINT - STATION 2 1 JURONG WEST CENTRAL LEVEL 1","type":"home"}},{"type":"Feature","geometry":{"type":"Point","coordinates":[103.730619,1.349792]},"properties":{"id":282,"name":"Student 282","pin":609788,"address":"JURONG POLYCLINICS 190 JURONG EAST AVENUE 1","type":"home"}},{"type":"Feature","geometry":{"type":"Point","coordinates":[103.73951,1.332892]},"properties":{"id":283,"name":"Student 283","pin":609732,"address":"JURONG REGIONAL LIBRARY 21 JURONG EAST CENTRAL","type":"home"}},{"type":"Feature","geometry":{"type":"Point","coordinates":[103.739684,1.333788]},"properties":{"id":284,"name":"Student 284","pin":600135,"address":"JURONG TOWN COUNCIL 135 JURONG GATEWAY ROAD","type":"home"}},{"type":"Feature","geometry":{"type":"Point","coordinates":[103.743673,1.347399]},"properties":{"id":285,"name":"Student 285","pin":651154,"address":"JURONG TOWN COUNCIL 154A BUKIT BATOK WEST AVENUE 8","type":"home"}},{"type":"Feature","geometry":{"type":"Point","coordinates":[103.738456,1.343415]},"properties":{"id":286,"name":"Student 286","pin":600252,"address":"JURONG TOWN COUNCIL 252 JURONG EAST STREET 24","type":"home"}},{"type":"Feature","geometry":{"type":"Point","coordinates":[103.738456,1.343415]},"properties":{"id":287,"name":"Student 287","pin":600252,"address":"JURONG TOWN COUNCIL 252 JURONG EAST STREET 24","type":"home"}},{"type":"Feature","geometry":{"type":"Point","coordinates":[103.737778,1.344288]},"properties":{"id":288,"name":"Student 288","pin":600255,"address":"JURONG TOWN COUNCIL 255 JURONG EAST STREET 24","type":"home"}},{"type":"Feature","geometry":{"type":"Point","coordinates":[103.745175,1.339312]},"properties":{"id":289,"name":"Student 289","pin":605286,"address":"JURONG TOWN COUNCIL 286E TOH GUAN ROAD","type":"home"}},{"type":"Feature","geometry":{"type":"Point","coordinates":[103.76687,1.321165]},"properties":{"id":290,"name":"Student 290","pin":120308,"address":"JURONG TOWN COUNCIL 308 CLEMENTI AVENUE 4","type":"home"}},{"type":"Feature","geometry":{"type":"Point","coordinates":[103.731146,1.345526]},"properties":{"id":291,"name":"Student 291","pin":600345,"address":"JURONG TOWN COUNCIL 345 JURONG EAST STREET 31","type":"home"}},{"type":"Feature","geometry":{"type":"Point","coordinates":[103.724268,1.350203]},"properties":{"id":292,"name":"Student 292","pin":640492,"address":"JURONG TOWN COUNCIL 492 JURONG WEST","type":"home"}},{"type":"Feature","geometry":{"type":"Point","coordinates":[103.749935,1.349812]},"properties":{"id":293,"name":"Student 293","pin":650630,"address":"JURONG TOWN COUNCIL 630 BUKIT BATOK CENTRAL","type":"home"}},{"type":"Feature","geometry":{"type":"Point","coordinates":[103.750512,1.349353]},"properties":{"id":294,"name":"Student 294","pin":650632,"address":"JURONG TOWN COUNCIL 632 BUKIT BATOK CENTRAL","type":"home"}},{"type":"Feature","geometry":{"type":"Point","coordinates":[103.7189549,1.345284]},"properties":{"id":295,"name":"Student 295","pin":641518,"address":"JURONG WEST HDB BRANCH OFFICE 518A JURONG WEST STREET 52","type":"home"}},{"type":"Feature","geometry":{"type":"Point","coordinates":[103.694113,1.338574]},"properties":{"id":296,"name":"Student 296","pin":648965,"address":"JURONG WEST SPORT & RECREATION CENTRE 20 JURONG WEST STREET 93","type":"home"}},{"type":"Feature","geometry":{"type":"Point","coordinates":[103.926892,1.333317]},"properties":{"id":297,"name":"Student 297","pin":469627,"address":"KAKI BUKIT COMMUNITY CLUB 670 BEDOK NORTH STREET 3","type":"home"}},{"type":"Feature","geometry":{"type":"Point","coordinates":[103.9054326,1.3366249]},"properties":{"id":298,"name":"Student 298","pin":415814,"address":"KAKI BUKIT RECREATION CENTRE 7 KAKI BUKIT AVENUE 3","type":"home"}},{"type":"Feature","geometry":{"type":"Point","coordinates":[103.871353,1.311472]},"properties":{"id":299,"name":"Student 299","pin":387405,"address":"KALLANG MRT STATION 5 SIMS AVENUE","type":"home"}},{"type":"Feature","geometry":{"type":"Point","coordinates":[103.900624,1.317871]},"properties":{"id":300,"name":"Student 300","pin":409075,"address":"KAMPONG UBI COMMUNITY CLUB 10 JALAN UBI #01-01","type":"home"}},{"type":"Feature","geometry":{"type":"Point","coordinates":[103.8445519,1.275185]},"properties":{"id":301,"name":"Student 301","pin":78877,"address":"KAMPONG UBI COMMUNITY CLUB 10 JALAN UBI","type":"home"}},{"type":"Feature","geometry":{"type":"Point","coordinates":[74.434976,16.216966]},"properties":{"id":302,"name":"Student 302","pin":416551,"address":"KEMBANGAN MRT STATION 55 SIMS AVENUE EAST","type":"home"}},{"type":"Feature","geometry":{"type":"Point","coordinates":[103.832919,1.41736]},"properties":{"id":303,"name":"Student 303","pin":769092,"address":"KHATIB MRT STATION 201 YISHUN AVENUE 2","type":"home"}},{"type":"Feature","geometry":{"type":"Point","coordinates":[103.838436,1.4237979]},"properties":{"id":304,"name":"Student 304","pin":768828,"address":"KHOO TECK PUAT HOSPITAL 90 YISHUN CENTRAL #01-01","type":"home"}},{"type":"Feature","geometry":{"type":"Point","coordinates":[103.850074,1.29133]},"properties":{"id":305,"name":"Student 305","pin":179097,"address":"KHOO TECK PUAT HOSPITAL 90 YISHUN CENTRAL","type":"home"}},{"type":"Feature","geometry":{"type":"Point","coordinates":[103.77279,1.377432]},"properties":{"id":306,"name":"Student 306","pin":671259,"address":"KIM SAN LENG (BUKIT PANJANG) 259 BUKIT PANJANG #01-36","type":"home"}},{"type":"Feature","geometry":{"type":"Point","coordinates":[103.8592169,1.2862989]},"properties":{"id":307,"name":"Student 307","pin":"NULL","address":"KIM SAN LENG (BUKIT PANJANG) 259 BUKIT PANJANG","type":"home"}},{"type":"Feature","geometry":{"type":"Point","coordinates":[103.742965,1.336786]},"properties":{"id":308,"name":"Student 308","pin":600202,"address":"KIM SAN LENG (JURONG EAST) 202 JURONG EAST","type":"home"}},{"type":"Feature","geometry":{"type":"Point","coordinates":[103.900986,1.329951]},"properties":{"id":309,"name":"Student 309","pin":400302,"address":"KIM SAN LENG (UBI) 302 UBI AVENUE 1 #01-71","type":"home"}},{"type":"Feature","geometry":{"type":"Point","coordinates":[103.8473278,1.3331682]},"properties":{"id":310,"name":"Student 310","pin":310520,"address":"KIM SAN LENG (UBI) 302 UBI AVENUE 1","type":"home"}},{"type":"Feature","geometry":{"type":"Point","coordinates":[103.8295083,1.4338271]},"properties":{"id":311,"name":"Student 311","pin":760417,"address":"KIM SAN LENG (YISHUN) 417 YISHUN RING ROAD","type":"home"}},{"type":"Feature","geometry":{"type":"Point","coordinates":[103.954987,1.358975]},"properties":{"id":312,"name":"Student 312","pin":520462,"address":"KNK GLOBAL PTE LTD 462 TAMPINES STREET 44 #01-74","type":"home"}},{"type":"Feature","geometry":{"type":"Point","coordinates":[103.853496,1.2804899]},"properties":{"id":313,"name":"Student 313","pin":18982,"address":"KNK GLOBAL PTE LTD 462 TAMPINES STREET 44","type":"home"}},{"type":"Feature","geometry":{"type":"Point","coordinates":[103.893615,1.391503]},"properties":{"id":314,"name":"Student 314","pin":544829,"address":"KOPITIAM COMPASS SQUARE 10 SENGKANG AVENUE","type":"home"}},{"type":"Feature","geometry":{"type":"Point","coordinates":[103.762,1.425249]},"properties":{"id":315,"name":"Student 315","pin":738702,"address":"KRANJI MRT STATION 960 WOODLANDS ROAD","type":"home"}},{"type":"Feature","geometry":{"type":"Point","coordinates":[103.762266,1.422209]},"properties":{"id":316,"name":"Student 316","pin":738078,"address":"KRANJI TURF CLUB 1 TURF CLUB","type":"home"}},{"type":"Feature","geometry":{"type":"Point","coordinates":[103.963164,1.32388]},"properties":{"id":317,"name":"Student 317","pin":488047,"address":"LAGUNA NATIONAL GOLF AND COUNTRY CLUB 11 LAGUNA GOLF GREEN","type":"home"}},{"type":"Feature","geometry":{"type":"Point","coordinates":[103.720999,1.344394]},"properties":{"id":318,"name":"Student 318","pin":649845,"address":"LAKESIDE MRT STATION 201 BOON LAY WAY","type":"home"}},{"type":"Feature","geometry":{"type":"Point","coordinates":[103.778992,1.320431]},"properties":{"id":319,"name":"Student 319","pin":597626,"address":"LAURELS SUPERMARKET 2 PANDAN VALLEY ULU PANDAN ROAD #B1-204","type":"home"}},{"type":"Feature","geometry":{"type":"Point","coordinates":[103.8592169,1.2862989]},"properties":{"id":320,"name":"Student 320","pin":18970,"address":"LAURELS SUPERMARKET 2 PANDAN VALLEY ULU PANDAN ROAD","type":"home"}},{"type":"Feature","geometry":{"type":"Point","coordinates":[103.863101,1.307527]},"properties":{"id":321,"name":"Student 321","pin":208699,"address":"LAVENDER MRT STATION 50 KALLANG ROAD","type":"home"}},{"type":"Feature","geometry":{"type":"Point","coordinates":[104.002665,1.37568]},"properties":{"id":322,"name":"Student 322","pin":498787,"address":"LIAN SOON AMENITY CENTRE 91 ALPS AVENUE","type":"home"}},{"type":"Feature","geometry":{"type":"Point","coordinates":[103.743131,1.392015]},"properties":{"id":323,"name":"Student 323","pin":680533,"address":"LIMBANG SHOPPING CENTRE - STATION 1 533 CHOA CHU KANG STREET 51","type":"home"}},{"type":"Feature","geometry":{"type":"Point","coordinates":[103.743131,1.392015]},"properties":{"id":324,"name":"Student 324","pin":680533,"address":"LIMBANG SHOPPING CENTRE - STATION 2 533 CHOA CHU KANG STREET 51","type":"home"}},{"type":"Feature","geometry":{"type":"Point","coordinates":[103.745046,1.384848]},"properties":{"id":325,"name":"Student 325","pin":689812,"address":"LOT 1 SHOPPERS MALL - STATION 1 21 CHOA CHU KANG AVENUE 4","type":"home"}},{"type":"Feature","geometry":{"type":"Point","coordinates":[103.745046,1.384848]},"properties":{"id":326,"name":"Student 326","pin":689812,"address":"LOT 1 SHOPPERS MALL - STATION 2 21 CHOA CHU KANG AVENUE 4","type":"home"}},{"type":"Feature","geometry":{"type":"Point","coordinates":[103.964726,1.367095]},"properties":{"id":327,"name":"Student 327","pin":510258,"address":"LOYANG POINT - STATION 1 258 PASIR RIS STREET 21","type":"home"}},{"type":"Feature","geometry":{"type":"Point","coordinates":[103.964726,1.367095]},"properties":{"id":328,"name":"Student 328","pin":510258,"address":"LOYANG POINT - STATION 2 258 PASIR RIS STREET 21","type":"home"}},{"type":"Feature","geometry":{"type":"Point","coordinates":[103.74904,1.325497]},"properties":{"id":329,"name":"Student 329","pin":609928,"address":"M1 SHOP 10 INTERNATIONAL BUSINESS PARK","type":"home"}},{"type":"Feature","geometry":{"type":"Point","coordinates":[103.88467,1.323438]},"properties":{"id":330,"name":"Student 330","pin":379131,"address":"MACPHERSON COMMUNITY CLUB 400 PAYA LEBAR WAY","type":"home"}},{"type":"Feature","geometry":{"type":"Point","coordinates":[103.898972,1.415119]},"properties":{"id":331,"name":"Student 331","pin":829734,"address":"MARINA COUNTRY CLUB 600 PONGGOL SEVENTEENTH AVENUE","type":"home"}},{"type":"Feature","geometry":{"type":"Point","coordinates":[103.915939,1.305042]},"properties":{"id":332,"name":"Student 332","pin":440050,"address":"MARINE PARADE TOWN COUNCIL - MARINE TERRACE OFFICE 50 MARINE TERRACE #01-265","type":"home"}},{"type":"Feature","geometry":{"type":"Point","coordinates":[103.857822,1.324803]},"properties":{"id":333,"name":"Student 333","pin":320074,"address":"MARINE PARADE TOWN COUNCIL - MARINE TERRACE OFFICE 50 MARINE TERRACE","type":"home"}},{"type":"Feature","geometry":{"type":"Point","coordinates":[103.885894,1.308248]},"properties":{"id":334,"name":"Student 334","pin":390051,"address":"MARINE PARADE TOWN COUNCIL - OLD AIRPORT ROAD 51 OLD AIRPORT ROAD","type":"home"}},{"type":"Feature","geometry":{"type":"Point","coordinates":[70.794156,22.296405]},"properties":{"id":335,"name":"Student 335","pin":360001,"address":"MARINE PARADE TOWN COUNCIL 1 UPPER ALJUNIED LANE","type":"home"}},{"type":"Feature","geometry":{"type":"Point","coordinates":[103.887252,1.320126]},"properties":{"id":336,"name":"Student 336","pin":380118,"address":"MARINE PARADE TOWN COUNCIL 118 ALJUNIED AVENUE 2","type":"home"}},{"type":"Feature","geometry":{"type":"Point","coordinates":[103.886657,1.31953]},"properties":{"id":337,"name":"Student 337","pin":380119,"address":"MARINE PARADE TOWN COUNCIL 119 ALJUNIED AVENUE 2","type":"home"}},{"type":"Feature","geometry":{"type":"Point","coordinates":[103.872411,1.369972]},"properties":{"id":338,"name":"Student 338","pin":550153,"address":"MARINE PARADE TOWN COUNCIL 153 SERANGOON NORTH AVENUE 1","type":"home"}},{"type":"Feature","geometry":{"type":"Point","coordinates":[103.870712,1.356886]},"properties":{"id":339,"name":"Student 339","pin":550226,"address":"MARINE PARADE TOWN COUNCIL 226 SERANGOON AVENUE 4","type":"home"}},{"type":"Feature","geometry":{"type":"Point","coordinates":[103.871399,1.353432]},"properties":{"id":340,"name":"Student 340","pin":550266,"address":"MARINE PARADE TOWN COUNCIL 266 SERANGOON CENTRAL DRIVE","type":"home"}},{"type":"Feature","geometry":{"type":"Point","coordinates":[103.901257,1.329443]},"properties":{"id":341,"name":"Student 341","pin":400304,"address":"MARINE PARADE TOWN COUNCIL 304 UBI AVENUE 1","type":"home"}},{"type":"Feature","geometry":{"type":"Point","coordinates":[103.902291,1.329438]},"properties":{"id":342,"name":"Student 342","pin":400306,"address":"MARINE PARADE TOWN COUNCIL 306 UBI AVENUE 1","type":"home"}},{"type":"Feature","geometry":{"type":"Point","coordinates":[103.86899,1.350383]},"properties":{"id":343,"name":"Student 343","pin":550326,"address":"MARINE PARADE TOWN COUNCIL 326 SERANGOON AVENUE 3","type":"home"}},{"type":"Feature","geometry":{"type":"Point","coordinates":[103.901742,1.326765]},"properties":{"id":344,"name":"Student 344","pin":400341,"address":"MARINE PARADE TOWN COUNCIL 341 UBI AVENUE 1","type":"home"}},{"type":"Feature","geometry":{"type":"Point","coordinates":[103.774161,1.432563]},"properties":{"id":345,"name":"Student 345","pin":739044,"address":"MARSILING MRT STATION 71 WOODLANDS AVENUE 3","type":"home"}},{"type":"Feature","geometry":{"type":"Point","coordinates":[103.912232,1.31903]},"properties":{"id":346,"name":"Student 346","pin":419975,"address":"MASJID KASSIM 448 CHANGI ROAD","type":"home"}},{"type":"Feature","geometry":{"type":"Point","coordinates":[103.79527,1.437703]},"properties":{"id":347,"name":"Student 347","pin":730888,"address":"MAYBANK 888 PLAZA 888 WOODLANDS DRIVE 50","type":"home"}},{"type":"Feature","geometry":{"type":"Point","coordinates":[103.931685,1.324715]},"properties":{"id":348,"name":"Student 348","pin":460210,"address":"MAYBANK BEDOK 210 NEW UPPER CHANGI ROAD","type":"home"}},{"type":"Feature","geometry":{"type":"Point","coordinates":[103.905569,1.302638]},"properties":{"id":349,"name":"Student 349","pin":440087,"address":"MAYBANK MARINE PARADE 87 MARINE PARADE CENTRAL","type":"home"}},{"type":"Feature","geometry":{"type":"Point","coordinates":[103.855275,1.361909]},"properties":{"id":350,"name":"Student 350","pin":560407,"address":"MAYBANK ROBINSON 16 RAFFLES QUAY","type":"home"}},{"type":"Feature","geometry":{"type":"Point","coordinates":[103.800775,1.296864]},"properties":{"id":351,"name":"Student 351","pin":148951,"address":"MDIS UNICAMPUS HOSTEL 501 STIRLING ROAD","type":"home"}},{"type":"Feature","geometry":{"type":"Point","coordinates":[103.848122,1.369017]},"properties":{"id":352,"name":"Student 352","pin":569933,"address":"MICRO BRANCH CITIBANK 53 ANG MO KIO AVENUE 3","type":"home"}},{"type":"Feature","geometry":{"type":"Point","coordinates":[103.860166,1.291601]},"properties":{"id":353,"name":"Student 353","pin":39192,"address":"MILLENIA WALK 9 RAFFLES BOULEVARD #02-K1","type":"home"}},{"type":"Feature","geometry":{"type":"Point","coordinates":[103.860271,1.312644]},"properties":{"id":354,"name":"Student 354","pin":209266,"address":"MILLENIA WALK 9 RAFFLES BOULEVARD","type":"home"}},{"type":"Feature","geometry":{"type":"Point","coordinates":[103.758669,1.370436]},"properties":{"id":355,"name":"Student 355","pin":669645,"address":"MINDEF BUILDING 212 GOMBAK DRIVE","type":"home"}},{"type":"Feature","geometry":{"type":"Point","coordinates":[103.8512578,1.299809]},"properties":{"id":356,"name":"Student 356","pin":189655,"address":"NAFA CAMPUS 1 80 BENCOOLEN STREET","type":"home"}},{"type":"Feature","geometry":{"type":"Point","coordinates":[103.848988,1.378461]},"properties":{"id":357,"name":"Student 357","pin":569830,"address":"NANYANG POLYTECHNIC A 180 ANG MO KIO AVENUE 8","type":"home"}},{"type":"Feature","geometry":{"type":"Point","coordinates":[103.685797,1.348251]},"properties":{"id":358,"name":"Student 358","pin":639548,"address":"NANYANG TECHNOLOGICAL UNIVERSITY BUS STOP CANTEEN 2 35 STUDENT WALK","type":"home"}},{"type":"Feature","geometry":{"type":"Point","coordinates":[103.680099,1.34715]},"properties":{"id":359,"name":"Student 359","pin":637331,"address":"NANYANG TECHNOLOGICAL UNIVERSITY NORTH SPINE NANYANG NORTH SPINE, 76 NANYANG AVENUE","type":"home"}},{"type":"Feature","geometry":{"type":"Point","coordinates":[103.680142,1.344233]},"properties":{"id":360,"name":"Student 360","pin":639798,"address":"NANYANG TECHNOLOGICAL UNIVERSITY SOUTH SPINE NANYANG SOUTH SPINE, 50 NANYANG AVENUE","type":"home"}},{"type":"Feature","geometry":{"type":"Point","coordinates":[103.8539367,1.2975132]},"properties":{"id":361,"name":"Student 361","pin":188064,"address":"NATIONAL LIBRARY 100 VICTORIA STREET","type":"home"}},{"type":"Feature","geometry":{"type":"Point","coordinates":[103.782853,1.294736]},"properties":{"id":362,"name":"Student 362","pin":119074,"address":"NATIONAL UNIVERSITY HOSPITAL KENT RIDGE WING 5 LOWER KENT RIDGE LEVEL 3","type":"home"}},{"type":"Feature","geometry":{"type":"Point","coordinates":[103.782853,1.294736]},"properties":{"id":363,"name":"Student 363","pin":119074,"address":"NATIONAL UNIVERSITY HOSPITAL MAIN BUILDING 5 LOWER KENT RIDGE LEVEL1","type":"home"}},{"type":"Feature","geometry":{"type":"Point","coordinates":[103.844052,1.387928]},"properties":{"id":364,"name":"Student 364","pin":569141,"address":"NCS HUB 5 ANG MO KIO STREET 62","type":"home"}},{"type":"Feature","geometry":{"type":"Point","coordinates":[103.861482,1.352087]},"properties":{"id":365,"name":"Student 365","pin":556741,"address":"NEW TECH PARK 151 LORONG CHUAN","type":"home"}},{"type":"Feature","geometry":{"type":"Point","coordinates":[103.8380377,1.3124622]},"properties":{"id":366,"name":"Student 366","pin":228234,"address":"NEWTON MRT STATION 49 SCOTTS ROAD","type":"home"}},{"type":"Feature","geometry":{"type":"Point","coordinates":[103.871806,1.350644]},"properties":{"id":367,"name":"Student 367","pin":556083,"address":"NEX SHOPPING MALL - STATION 1 23 SERANGOON CENTRAL #B1-00","type":"home"}},{"type":"Feature","geometry":{"type":"Point","coordinates":[103.8480787,1.3580692]},"properties":{"id":368,"name":"Student 368","pin":570222,"address":"NEX SHOPPING MALL - STATION 1 23 SERANGOON CENTRAL","type":"home"}},{"type":"Feature","geometry":{"type":"Point","coordinates":[103.871806,1.350644]},"properties":{"id":369,"name":"Student 369","pin":556083,"address":"NEX SHOPPING MALL - STATION 2 23 SERANGOON CENTRAL #B1-00","type":"home"}},{"type":"Feature","geometry":{"type":"Point","coordinates":[103.8461174,1.3404312]},"properties":{"id":370,"name":"Student 370","pin":310116,"address":"NEX SHOPPING MALL - STATION 2 23 SERANGOON CENTRAL","type":"home"}},{"type":"Feature","geometry":{"type":"Point","coordinates":[103.871806,1.350644]},"properties":{"id":371,"name":"Student 371","pin":556083,"address":"NEX SHOPPING MALL - STATION 3 23 SERANGOON CENTRAL #02-00","type":"home"}},{"type":"Feature","geometry":{"type":"Point","coordinates":[103.7973192,1.3004579]},"properties":{"id":372,"name":"Student 372","pin":142049,"address":"NEX SHOPPING MALL - STATION 3 23 SERANGOON CENTRAL","type":"home"}},{"type":"Feature","geometry":{"type":"Point","coordinates":[103.871806,1.350644]},"properties":{"id":373,"name":"Student 373","pin":556083,"address":"NEX SHOPPING MALL - STATION 4 23 SERANGOON CENTRAL #03-00","type":"home"}},{"type":"Feature","geometry":{"type":"Point","coordinates":[103.841406,1.379999]},"properties":{"id":374,"name":"Student 374","pin":560632,"address":"NEX SHOPPING MALL - STATION 4 23 SERANGOON CENTRAL","type":"home"}},{"type":"Feature","geometry":{"type":"Point","coordinates":[103.772471,1.332823]},"properties":{"id":375,"name":"Student 375","pin":599489,"address":"NGEE ANN POLYTECHNIC 535 CLEMENTI ROAD","type":"home"}},{"type":"Feature","geometry":{"type":"Point","coordinates":[103.8355685,1.4298358]},"properties":{"id":376,"name":"Student 376","pin":769098,"address":"NORTHPOINT - STATION 1 930 YISHUN AVENUE 2","type":"home"}},{"type":"Feature","geometry":{"type":"Point","coordinates":[103.8355685,1.4298358]},"properties":{"id":377,"name":"Student 377","pin":769098,"address":"NORTHPOINT - STATION 2 930 YISHUN AVENUE 2","type":"home"}},{"type":"Feature","geometry":{"type":"Point","coordinates":[103.8355685,1.4298358]},"properties":{"id":378,"name":"Student 378","pin":769098,"address":"NORTHPOINT - STATION 3 930 YISHUN AVENUE 2","type":"home"}},{"type":"Feature","geometry":{"type":"Point","coordinates":[103.799804,1.45535]},"properties":{"id":379,"name":"Student 379","pin":757716,"address":"NORTHTECH 29 WOODLANDS INDUSTRIAL PARK E1","type":"home"}},{"type":"Feature","geometry":{"type":"Point","coordinates":[103.8435124,1.3202681]},"properties":{"id":380,"name":"Student 380","pin":307642,"address":"NOVENA MRT STATION 250 THOMSON ROAD","type":"home"}},{"type":"Feature","geometry":{"type":"Point","coordinates":[103.838707,1.297592]},"properties":{"id":381,"name":"Student 381","pin":239571,"address":"NTUC FAIRPRICE ORCHARD GRAND COURT 131 KILLINEY ROAD","type":"home"}},{"type":"Feature","geometry":{"type":"Point","coordinates":[103.841239,1.287159]},"properties":{"id":382,"name":"Student 382","pin":189557,"address":"NTUC INCOME CENTRE 75 BRAS BASAH ROAD","type":"home"}},{"type":"Feature","geometry":{"type":"Point","coordinates":[103.771172,1.294229]},"properties":{"id":383,"name":"Student 383","pin":119260,"address":"NUS BLOCK ADMIN 10 KENT RIDGE CRESCENT","type":"home"}},{"type":"Feature","geometry":{"type":"Point","coordinates":[103.770845,1.299144]},"properties":{"id":384,"name":"Student 384","pin":117576,"address":"NUS BLOCK E4 9 ENGINEERING DRIVE #04-00","type":"home"}},{"type":"Feature","geometry":{"type":"Point","coordinates":[103.8592169,1.2862989]},"properties":{"id":385,"name":"Student 385","pin":18970,"address":"NUS BLOCK E4 9 ENGINEERING DRIVE","type":"home"}},{"type":"Feature","geometry":{"type":"Point","coordinates":[103.818276,1.322485]},"properties":{"id":386,"name":"Student 386","pin":259759,"address":"NUS BUKIT TIMAH CAMPUS 469 BUKIT TIMAH ROAD","type":"home"}},{"type":"Feature","geometry":{"type":"Point","coordinates":[103.7733071,1.3071809]},"properties":{"id":387,"name":"Student 387","pin":138608,"address":"NUS CUTOWN 8 COLLEGE AVENUE WEST","type":"home"}},{"type":"Feature","geometry":{"type":"Point","coordinates":[103.771172,1.294229]},"properties":{"id":388,"name":"Student 388","pin":119260,"address":"NUS LT 27 10 KENT RIDGE CRESCENT","type":"home"}},{"type":"Feature","geometry":{"type":"Point","coordinates":[103.841406,1.379999]},"properties":{"id":389,"name":"Student 389","pin":560632,"address":"O MOCHI CAKE AND BAKERY PTE LTD 632 ANG MO KIO AVENUE 4 #01-966","type":"home"}},{"type":"Feature","geometry":{"type":"Point","coordinates":[103.849996,1.293942]},"properties":{"id":390,"name":"Student 390","pin":178892,"address":"O MOCHI CAKE AND BAKERY PTE LTD 632 ANG MO KIO AVENUE 4","type":"home"}},{"type":"Feature","geometry":{"type":"Point","coordinates":[103.852437,1.282387]},"properties":{"id":391,"name":"Student 391","pin":18989,"address":"ONE MARINA BOULEVARD 1 MARINA BOULEVARD","type":"home"}},{"type":"Feature","geometry":{"type":"Point","coordinates":[103.849209,1.331579]},"properties":{"id":392,"name":"Student 392","pin":319402,"address":"ORANGETEE BUILDING 430 LORONG 6 TOA PAYOH","type":"home"}},{"type":"Feature","geometry":{"type":"Point","coordinates":[103.8399306,1.3009279]},"properties":{"id":393,"name":"Student 393","pin":238896,"address":"ORCHARD CENTRAL  181 ORCHARD ROAD","type":"home"}},{"type":"Feature","geometry":{"type":"Point","coordinates":[103.8323238,1.303287]},"properties":{"id":394,"name":"Student 394","pin":238878,"address":"ORCHARD MRT STATION 437 ORCHARD ROAD","type":"home"}},{"type":"Feature","geometry":{"type":"Point","coordinates":[103.8391087,1.281367]},"properties":{"id":395,"name":"Student 395","pin":169037,"address":"OUTRAM PARK MRT STATION 10 OUTRAM ROAD","type":"home"}},{"type":"Feature","geometry":{"type":"Point","coordinates":[103.844577,1.298048]},"properties":{"id":396,"name":"Student 396","pin":238459,"address":"PARK MALL 9 PENANG ROAD BASEMENT 1","type":"home"}},{"type":"Feature","geometry":{"type":"Point","coordinates":[103.849458,1.300626]},"properties":{"id":397,"name":"Student 397","pin":188307,"address":"PARKLANE SHOPPING MALL 35 SELEGIE ROAD","type":"home"}},{"type":"Feature","geometry":{"type":"Point","coordinates":[103.905281,1.301072]},"properties":{"id":398,"name":"Student 398","pin":449269,"address":"PARKWAY PARADE 80 MARINE PARADE ROAD","type":"home"}},{"type":"Feature","geometry":{"type":"Point","coordinates":[103.671339,1.333874]},"properties":{"id":399,"name":"Student 399","pin":637559,"address":"PASIR LABA CAMP 132 PASIR LABA ROAD","type":"home"}},{"type":"Feature","geometry":{"type":"Point","coordinates":[103.949331,1.373013]},"properties":{"id":400,"name":"Student 400","pin":519634,"address":"PASIR RIS MRT STATION 10 PASIR RIS CENTRAL","type":"home"}},{"type":"Feature","geometry":{"type":"Point","coordinates":[113.195607,22.232241]},"properties":{"id":401,"name":"Student 401","pin":519110,"address":"PASIR RIS PARK CARPARK E PASIR RIS ROAD","type":"home"}},{"type":"Feature","geometry":{"type":"Point","coordinates":[103.936062,1.379692]},"properties":{"id":402,"name":"Student 402","pin":510735,"address":"PASIR RIS WEST PLAZA - STATION 1 735 PASIR RIS STREET 72","type":"home"}},{"type":"Feature","geometry":{"type":"Point","coordinates":[103.936062,1.379692]},"properties":{"id":403,"name":"Student 403","pin":510735,"address":"PASIR RIS WEST PLAZA - STATION 2 735 PASIR RIS STREET 72","type":"home"}},{"type":"Feature","geometry":{"type":"Point","coordinates":[103.90741,1.390968]},"properties":{"id":404,"name":"Student 404","pin":540156,"address":"PASIR RIS-PUNGGOL TOWN COUNCIL 156 RIVERVALE CRESCENT","type":"home"}},{"type":"Feature","geometry":{"type":"Point","coordinates":[103.90634,1.39946]},"properties":{"id":405,"name":"Student 405","pin":820198,"address":"PASIR RIS-PUNGGOL TOWN COUNCIL 198 PUNGGOL FIELD","type":"home"}},{"type":"Feature","geometry":{"type":"Point","coordinates":[103.895953,1.39484]},"properties":{"id":406,"name":"Student 406","pin":540263,"address":"PASIR RIS-PUNGGOL TOWN COUNCIL 263 COMPASSVALE STREET","type":"home"}},{"type":"Feature","geometry":{"type":"Point","coordinates":[103.897061,1.38191]},"properties":{"id":407,"name":"Student 407","pin":540266,"address":"PASIR RIS-PUNGGOL TOWN COUNCIL 266 COMPASSVALE BOW","type":"home"}},{"type":"Feature","geometry":{"type":"Point","coordinates":[103.897067,1.38376]},"properties":{"id":408,"name":"Student 408","pin":540267,"address":"PASIR RIS-PUNGGOL TOWN COUNCIL 267 COMPASSVALE LINK","type":"home"}},{"type":"Feature","geometry":{"type":"Point","coordinates":[103.893938,1.382748]},"properties":{"id":409,"name":"Student 409","pin":544275,"address":"PASIR RIS-PUNGGOL TOWN COUNCIL 275D COMPASSVALE LINK","type":"home"}},{"type":"Feature","geometry":{"type":"Point","coordinates":[103.957429,1.369427]},"properties":{"id":410,"name":"Student 410","pin":510443,"address":"PASIR RIS-PUNGGOL TOWN COUNCIL 443 PASIR RIS DRIVE 6","type":"home"}},{"type":"Feature","geometry":{"type":"Point","coordinates":[103.907988,1.403872]},"properties":{"id":411,"name":"Student 411","pin":820603,"address":"PASIR RIS-PUNGGOL TOWN COUNCIL 603 PUNGGOL ROAD","type":"home"}},{"type":"Feature","geometry":{"type":"Point","coordinates":[103.915923,1.399345]},"properties":{"id":412,"name":"Student 412","pin":820639,"address":"PASIR RIS-PUNGGOL TOWN COUNCIL 639 PUNGGOL DRIVE","type":"home"}},{"type":"Feature","geometry":{"type":"Point","coordinates":[108.782407,29.387905]},"properties":{"id":413,"name":"Student 413","pin":409006,"address":"PAYA LEBAR MRT STATION 30 PAYA LEBAR ROAD","type":"home"}},{"type":"Feature","geometry":{"type":"Point","coordinates":[103.8519245,1.3129033]},"properties":{"id":414,"name":"Student 414","pin":219458,"address":"PEK KIO COMMUNITY CLUB 21 GLOUCESTER ROAD","type":"home"}},{"type":"Feature","geometry":{"type":"Point","coordinates":[103.696988,1.34152]},"properties":{"id":415,"name":"Student 415","pin":640638,"address":"PIONEER MALL - STATION 1 638 JURONG WEST STREET 61","type":"home"}},{"type":"Feature","geometry":{"type":"Point","coordinates":[103.696988,1.34152]},"properties":{"id":416,"name":"Student 416","pin":640638,"address":"PIONEER MALL - STATION 2 638 JURONG WEST STREET 61","type":"home"}},{"type":"Feature","geometry":{"type":"Point","coordinates":[103.8451045,1.3006139]},"properties":{"id":417,"name":"Student 417","pin":235539,"address":"PLAZA SINGAPURA - STATION 1 68 ORCHARD ROAD #B1-00","type":"home"}},{"type":"Feature","geometry":{"type":"Point","coordinates":[103.8518973,1.2832111]},"properties":{"id":418,"name":"Student 418","pin":48622,"address":"PLAZA SINGAPURA - STATION 1 68 ORCHARD ROAD","type":"home"}},{"type":"Feature","geometry":{"type":"Point","coordinates":[103.8451045,1.3006139]},"properties":{"id":419,"name":"Student 419","pin":235539,"address":"PLAZA SINGAPURA - STATION 2 68 ORCHARD ROAD #B1-00","type":"home"}},{"type":"Feature","geometry":{"type":"Point","coordinates":[103.8518973,1.2832111]},"properties":{"id":420,"name":"Student 420","pin":48622,"address":"PLAZA SINGAPURA - STATION 2 68 ORCHARD ROAD","type":"home"}},{"type":"Feature","geometry":{"type":"Point","coordinates":[103.849316,1.3001259]},"properties":{"id":421,"name":"Student 421","pin":188306,"address":"POMO 1 SELEGIE ROAD","type":"home"}},{"type":"Feature","geometry":{"type":"Point","coordinates":[103.892303,1.335655]},"properties":{"id":422,"name":"Student 422","pin":534414,"address":"POSB 1024 TAI SENG (TAI SENG INDUSTRIAL ESTATE) 1024 TAI SENG AVENUE","type":"home"}},{"type":"Feature","geometry":{"type":"Point","coordinates":[103.769688,1.376086]},"properties":{"id":423,"name":"Student 423","pin":670128,"address":"POSB 128 PENDING ROAD 128 PENDING ROAD","type":"home"}},{"type":"Feature","geometry":{"type":"Point","coordinates":[103.883466,1.307053]},"properties":{"id":424,"name":"Student 424","pin":390013,"address":"POSB 13 JALAN EMPAT 13 JALAN EMPAT","type":"home"}},{"type":"Feature","geometry":{"type":"Point","coordinates":[103.935474,1.327608]},"properties":{"id":425,"name":"Student 425","pin":460133,"address":"POSB 133 BEDOK NORTH 133 BEDOK NORTH AVENUE 3","type":"home"}},{"type":"Feature","geometry":{"type":"Point","coordinates":[103.955832,1.344643]},"properties":{"id":426,"name":"Student 426","pin":520146,"address":"POSB 146 SIMEI 146 SIMEI STREET 2","type":"home"}},{"type":"Feature","geometry":{"type":"Point","coordinates":[103.8027491,1.2926246]},"properties":{"id":427,"name":"Student 427","pin":140158,"address":"POSB 158 MEILING STREET 158 MEILING STREET","type":"home"}},{"type":"Feature","geometry":{"type":"Point","coordinates":[103.754891,1.378556]},"properties":{"id":428,"name":"Student 428","pin":680016,"address":"POSB 16 TECK WHYE LANE 16 TECK WHYE LANE","type":"home"}},{"type":"Feature","geometry":{"type":"Point","coordinates":[55.121647,51.78294]},"properties":{"id":429,"name":"Student 429","pin":460018,"address":"POSB 18 BEDOK SOUTH 18 BEDOK SOUTH","type":"home"}},{"type":"Feature","geometry":{"type":"Point","coordinates":[74.467217,15.78247]},"properties":{"id":430,"name":"Student 430","pin":590018,"address":"POSB 18 TOH YI ROAD 18 TOH YI DRIVE","type":"home"}},{"type":"Feature","geometry":{"type":"Point","coordinates":[103.836587,1.440684]},"properties":{"id":431,"name":"Student 431","pin":768925,"address":"POSB 190 YISHUN AVENUE 7 190 YISHUN AVENUE 7","type":"home"}},{"type":"Feature","geometry":{"type":"Point","coordinates":[103.8357916,1.302806]},"properties":{"id":432,"name":"Student 432","pin":569506,"address":"POSB 22 ANG MO KIO INDUSTRIAL PARK 2 22 ANG MO KIO INDUSTRIAL PARK 2","type":"home"}},{"type":"Feature","geometry":{"type":"Point","coordinates":[103.8907,1.364858]},"properties":{"id":433,"name":"Student 433","pin":530023,"address":"POSB 23 HOUGANG AVENUE 3 23 HOUGANG AVENUE 3","type":"home"}},{"type":"Feature","geometry":{"type":"Point","coordinates":[103.745175,1.339312]},"properties":{"id":434,"name":"Student 434","pin":605286,"address":"POSB 286E TOH GUAN 286E TOH GUAN ROAD","type":"home"}},{"type":"Feature","geometry":{"type":"Point","coordinates":[103.876088,1.350556]},"properties":{"id":435,"name":"Student 435","pin":531003,"address":"POSB 3 LORONG LEW LIAN 3 LORONG LEW LIAN","type":"home"}},{"type":"Feature","geometry":{"type":"Point","coordinates":[103.902125,1.330744]},"properties":{"id":436,"name":"Student 436","pin":400301,"address":"POSB 301 KAMPONG UBI 301 UBI AVENUE 1 #01-01","type":"home"}},{"type":"Feature","geometry":{"type":"Point","coordinates":[103.853496,1.2804899]},"properties":{"id":437,"name":"Student 437","pin":18982,"address":"POSB 301 KAMPONG UBI 301 UBI AVENUE 1","type":"home"}},{"type":"Feature","geometry":{"type":"Point","coordinates":[103.730982,1.349963]},"properties":{"id":438,"name":"Student 438","pin":600340,"address":"POSB 340 JURONG EAST 340 JURONG EAST AVENUE 1","type":"home"}},{"type":"Feature","geometry":{"type":"Point","coordinates":[103.731466,1.345236]},"properties":{"id":439,"name":"Student 439","pin":600347,"address":"POSB 347 JURONG EAST 347 JURONG EAST","type":"home"}},{"type":"Feature","geometry":{"type":"Point","coordinates":[103.821985,1.272617]},"properties":{"id":440,"name":"Student 440","pin":90036,"address":"POSB 36 TELOK BLANGAH RISE 36 TELOK BLANGAH RISE","type":"home"}},{"type":"Feature","geometry":{"type":"Point","coordinates":[103.887176,1.328302]},"properties":{"id":441,"name":"Student 441","pin":370037,"address":"POSB 37 CIRCUIT ROAD 37 CIRCUIT ROAD","type":"home"}},{"type":"Feature","geometry":{"type":"Point","coordinates":[103.767909,1.317928]},"properties":{"id":442,"name":"Student 442","pin":120379,"address":"POSB 379 CLEMENTI AVENUE 5 379 CLEMENTI AVENUE 5","type":"home"}},{"type":"Feature","geometry":{"type":"Point","coordinates":[108.757575,23.21447]},"properties":{"id":443,"name":"Student 443","pin":530401,"address":"POSB 401 HOUGANG 401 HOUGANG AVENUE 10","type":"home"}},{"type":"Feature","geometry":{"type":"Point","coordinates":[103.945655,1.35786]},"properties":{"id":444,"name":"Student 444","pin":520406,"address":"POSB 406 TAMPINES STREET 41 406 TAMPINES STREET 41","type":"home"}},{"type":"Feature","geometry":{"type":"Point","coordinates":[103.746637,1.319743]},"properties":{"id":445,"name":"Student 445","pin":600412,"address":"POSB 412 PANDAN GARDENS 412 PANDAN GARDENS","type":"home"}},{"type":"Feature","geometry":{"type":"Point","coordinates":[103.855861,1.368595]},"properties":{"id":446,"name":"Student 446","pin":560453,"address":"POSB 453 ANG MO KIO 453 ANG MO KIO AVENUE 10","type":"home"}},{"type":"Feature","geometry":{"type":"Point","coordinates":[103.724924,1.349595]},"properties":{"id":447,"name":"Student 447","pin":640494,"address":"POSB 494 JURONG WEST 494 JURONG WEST STREET 41","type":"home"}},{"type":"Feature","geometry":{"type":"Point","coordinates":[103.909958,1.338125]},"properties":{"id":448,"name":"Student 448","pin":415920,"address":"POSB 5 STAR DORMITORY 39 KAKI BUKIT AVENUE 3","type":"home"}},{"type":"Feature","geometry":{"type":"Point","coordinates":[103.849951,1.374855]},"properties":{"id":449,"name":"Student 449","pin":560505,"address":"POSB 505 ANG MO KIO 505 ANG MO KIO AVENEUE 8","type":"home"}},{"type":"Feature","geometry":{"type":"Point","coordinates":[103.930561,1.333244]},"properties":{"id":450,"name":"Student 450","pin":460511,"address":"POSB 511 BEDOK NORTH 511 BEDOK NORTH STREET 3","type":"home"}},{"type":"Feature","geometry":{"type":"Point","coordinates":[103.918215,1.330703]},"properties":{"id":451,"name":"Student 451","pin":469029,"address":"POSB 514 CHAI CHEE LANE 514 CHAI CHEE LANE","type":"home"}},{"type":"Feature","geometry":{"type":"Point","coordinates":[103.890728,1.373446]},"properties":{"id":452,"name":"Student 452","pin":530521,"address":"POSB 521 HOUGANG 521 HOUGANG AVENUE 6","type":"home"}},{"type":"Feature","geometry":{"type":"Point","coordinates":[103.914506,1.30588]},"properties":{"id":453,"name":"Student 453","pin":440059,"address":"POSB 59 MARINE TERRACE 59 MARINE TERRACE","type":"home"}},{"type":"Feature","geometry":{"type":"Point","coordinates":[103.7698554,1.4398829]},"properties":{"id":454,"name":"Student 454","pin":731005,"address":"POSB 5A WOODLANDS CENTRE 5A WOODLANDS CENTRE ROAD","type":"home"}},{"type":"Feature","geometry":{"type":"Point","coordinates":[104.090931,30.636062]},"properties":{"id":455,"name":"Student 455","pin":610064,"address":"POSB 64 YUNG KUANG ROAD 64 YUNG KUANG ROAD","type":"home"}},{"type":"Feature","geometry":{"type":"Point","coordinates":[103.8057946,1.3164558]},"properties":{"id":456,"name":"Student 456","pin":260007,"address":"POSB 7 EMPRESS ROAD 7 EMPRESS ROAD","type":"home"}},{"type":"Feature","geometry":{"type":"Point","coordinates":[103.935075,1.358856]},"properties":{"id":457,"name":"Student 457","pin":520717,"address":"POSB 717 TAMPINES 717 TAMPINES STREET 72","type":"home"}},{"type":"Feature","geometry":{"type":"Point","coordinates":[103.943611,1.320391]},"properties":{"id":458,"name":"Student 458","pin":460072,"address":"POSB 72 BEDOK SOUTH 72 BEDOK SOUTH AVENUE 3","type":"home"}},{"type":"Feature","geometry":{"type":"Point","coordinates":[103.698697,1.345516]},"properties":{"id":459,"name":"Student 459","pin":640731,"address":"POSB 731 JURONG WEST  731 JURONG WEST STREET 71","type":"home"}},{"type":"Feature","geometry":{"type":"Point","coordinates":[103.833876,1.429206]},"properties":{"id":460,"name":"Student 460","pin":760744,"address":"POSB 744 YISHUN  744 YISHUN STREET 72","type":"home"}},{"type":"Feature","geometry":{"type":"Point","coordinates":[103.8181035,1.2878266]},"properties":{"id":461,"name":"Student 461","pin":150079,"address":"POSB 79 REDHILL LANE 79 REDHILL LANE","type":"home"}},{"type":"Feature","geometry":{"type":"Point","coordinates":[103.786115,1.440897]},"properties":{"id":462,"name":"Student 462","pin":730802,"address":"POSB 802 WOODLANDS 802 WOODLANDS STREET 81","type":"home"}},{"type":"Feature","geometry":{"type":"Point","coordinates":[103.937215,1.346566]},"properties":{"id":463,"name":"Student 463","pin":520811,"address":"POSB 811 TAMPINES 811 TAMPINES AVENUE 4 #01-831A","type":"home"}},{"type":"Feature","geometry":{"type":"Point","coordinates":[103.83358,1.358586]},"properties":{"id":464,"name":"Student 464","pin":573970,"address":"POSB 811 TAMPINES 811 TAMPINES AVENUE 4","type":"home"}},{"type":"Feature","geometry":{"type":"Point","coordinates":[103.936474,1.352108]},"properties":{"id":465,"name":"Student 465","pin":520844,"address":"POSB 844 TAMPINES  844 TAMPINES STREET 82","type":"home"}},{"type":"Feature","geometry":{"type":"Point","coordinates":[44.574725,48.784739]},"properties":{"id":466,"name":"Student 466","pin":400009,"address":"POSB 9 EUNOS 9 EUNOS CRESENT #01 -14A","type":"home"}},{"type":"Feature","geometry":{"type":"Point","coordinates":[103.849951,1.374855]},"properties":{"id":467,"name":"Student 467","pin":560505,"address":"POSB 9 EUNOS 9 EUNOS CRESENT","type":"home"}},{"type":"Feature","geometry":{"type":"Point","coordinates":[103.68983,1.339593]},"properties":{"id":468,"name":"Student 468","pin":640923,"address":"POSB 923 JURONG WEST 923 JURONG WEST","type":"home"}},{"type":"Feature","geometry":{"type":"Point","coordinates":[103.850025,1.338254]},"properties":{"id":469,"name":"Student 469","pin":310093,"address":"POSB 93 TOA PAYOH  93 LORONG 4 TOA PAYOH","type":"home"}},{"type":"Feature","geometry":{"type":"Point","coordinates":[103.941706,1.347958]},"properties":{"id":470,"name":"Student 470","pin":520938,"address":"POSB 938 TAMPINES 938 TAMPINES AVENUE 5","type":"home"}},{"type":"Feature","geometry":{"type":"Point","coordinates":[103.822717,1.459976]},"properties":{"id":471,"name":"Student 471","pin":759956,"address":"POSB ADMIRALTY ROAD WEST 60 ADMIRALTY ROAD WEST","type":"home"}},{"type":"Feature","geometry":{"type":"Point","coordinates":[103.8554865,1.3777047]},"properties":{"id":472,"name":"Student 472","pin":567720,"address":"POSB ANG MO KIO ITE COLLEGE CENTRAL 2 ANG MO KIO DRIVE","type":"home"}},{"type":"Feature","geometry":{"type":"Point","coordinates":[103.901579,1.385427]},"properties":{"id":473,"name":"Student 473","pin":540118,"address":"POSB AUTO LOBBY RIVERVALE PLAZA 118 RIVERVALE DRIVE #01-266","type":"home"}},{"type":"Feature","geometry":{"type":"Point","coordinates":[103.850442,1.292307]},"properties":{"id":474,"name":"Student 474","pin":179098,"address":"POSB AUTO LOBBY RIVERVALE PLAZA 118 RIVERVALE DRIVE","type":"home"}},{"type":"Feature","geometry":{"type":"Point","coordinates":[103.847011,1.34131]},"properties":{"id":475,"name":"Student 475","pin":310107,"address":"POSB AUTO LOBBY TOA PAYOH LORONG 1 107 TOA PAYOH LORONG 1","type":"home"}},{"type":"Feature","geometry":{"type":"Point","coordinates":[103.8361333,1.4361087]},"properties":{"id":476,"name":"Student 476","pin":760290,"address":"POSB AUTO LOBBY YISHUN STREET 22 290 YISHUN STREET 22","type":"home"}},{"type":"Feature","geometry":{"type":"Point","coordinates":[103.843403,1.281201]},"properties":{"id":477,"name":"Student 477","pin":50005,"address":"POSB BANDA 5 BANDA STREET","type":"home"}},{"type":"Feature","geometry":{"type":"Point","coordinates":[103.776131,1.34234]},"properties":{"id":478,"name":"Student 478","pin":588177,"address":"POSB BEAUTY WORLD CENTRE 144 UPPER BUKIT TIMAH ROAD","type":"home"}},{"type":"Feature","geometry":{"type":"Point","coordinates":[103.925109,1.331305]},"properties":{"id":479,"name":"Student 479","pin":460539,"address":"POSB BEDOK NORTH 539 BEDOK NORTH STREET 3 #01-01\/02","type":"home"}},{"type":"Feature","geometry":{"type":"Point","coordinates":[103.8490209,1.342027]},"properties":{"id":480,"name":"Student 480","pin":310203,"address":"POSB BEDOK NORTH 539 BEDOK NORTH STREET 3","type":"home"}},{"type":"Feature","geometry":{"type":"Point","coordinates":[78.116531,24.228621]},"properties":{"id":481,"name":"Student 481","pin":470124,"address":"POSB BEDOK RESERVOIR 124 BEDOK RESERVOIR","type":"home"}},{"type":"Feature","geometry":{"type":"Point","coordinates":[103.849757,1.350139]},"properties":{"id":482,"name":"Student 482","pin":570514,"address":"POSB BISHAN BUS INTERCHANGE 514 BISHAN STREET 13","type":"home"}},{"type":"Feature","geometry":{"type":"Point","coordinates":[103.778403,1.438494]},"properties":{"id":483,"name":"Student 483","pin":730131,"address":"POSB BLK 131 MARSILING 131 MARSILING RISE","type":"home"}},{"type":"Feature","geometry":{"type":"Point","coordinates":[103.895652,1.314855]},"properties":{"id":484,"name":"Student 484","pin":430010,"address":"POSB BLOCK 10 HAIG RD 10 HAIG ROAD","type":"home"}},{"type":"Feature","geometry":{"type":"Point","coordinates":[103.8357319,1.273589]},"properties":{"id":485,"name":"Student 485","pin":80108,"address":"POSB BLOCK 108 SPOTTISWOODE 108 SPOTTISWOODE PARK ROAD","type":"home"}},{"type":"Feature","geometry":{"type":"Point","coordinates":[103.744289,1.347569]},"properties":{"id":486,"name":"Student 486","pin":650153,"address":"POSB BLOCK 153 BUKIT BATOK 153 BUKIT BATOK STREET 11","type":"home"}},{"type":"Feature","geometry":{"type":"Point","coordinates":[103.839239,1.374481]},"properties":{"id":487,"name":"Student 487","pin":560160,"address":"POSB BLOCK 160 ANG MO KIO 160 ANG MO KIO AVENUE 4 #A1-11","type":"home"}},{"type":"Feature","geometry":{"type":"Point","coordinates":[103.841239,1.287159]},"properties":{"id":488,"name":"Student 488","pin":160054,"address":"POSB BLOCK 160 ANG MO KIO 160 ANG MO KIO AVENUE 4","type":"home"}},{"type":"Feature","geometry":{"type":"Point","coordinates":[103.8719523,1.3147419]},"properties":{"id":489,"name":"Student 489","pin":380018,"address":"POSB BLOCK 18 UPPER BOON KENG  18 UPPER BOON KENG","type":"home"}},{"type":"Feature","geometry":{"type":"Point","coordinates":[103.954792,1.354067]},"properties":{"id":490,"name":"Student 490","pin":520211,"address":"POSB BLOCK 211 TAMPINES 211 TAMPINES AVENUE 2 #01-21A","type":"home"}},{"type":"Feature","geometry":{"type":"Point","coordinates":[103.865262,1.3652169]},"properties":{"id":491,"name":"Student 491","pin":556679,"address":"POSB BLOCK 211 TAMPINES 211 TAMPINES AVENUE 2","type":"home"}},{"type":"Feature","geometry":{"type":"Point","coordinates":[103.867628,1.353935]},"properties":{"id":492,"name":"Student 492","pin":550304,"address":"POSB BLOCK 304 SERANGOON AVENUE 2 304 SERANGOON AVENUE 2","type":"home"}},{"type":"Feature","geometry":{"type":"Point","coordinates":[103.848065,1.364171]},"properties":{"id":493,"name":"Student 493","pin":560341,"address":"POSB BLOCK 341 ANG MO KIO 341 ANG MO KIO AVENUE 1","type":"home"}},{"type":"Feature","geometry":{"type":"Point","coordinates":[103.718008,1.350353]},"properties":{"id":494,"name":"Student 494","pin":640502,"address":"POSB BLOCK 502 JURONG WEST 502 JURONG WEST AVENUE 1 #01-351A","type":"home"}},{"type":"Feature","geometry":{"type":"Point","coordinates":[103.857422,1.290989]},"properties":{"id":495,"name":"Student 495","pin":39594,"address":"POSB BLOCK 502 JURONG WEST 502 JURONG WEST AVENUE 1","type":"home"}},{"type":"Feature","geometry":{"type":"Point","coordinates":[103.8549929,1.372565]},"properties":{"id":496,"name":"Student 496","pin":560528,"address":"POSB BLOCK 528 ANG MO KIO 528 ANG MO KIO AVENUE 10","type":"home"}},{"type":"Feature","geometry":{"type":"Point","coordinates":[103.8398214,1.3801306]},"properties":{"id":497,"name":"Student 497","pin":560629,"address":"POSB BLOCK 629 ANG MO KIO  629 ANG MO KIO AVENUE 4","type":"home"}},{"type":"Feature","geometry":{"type":"Point","coordinates":[103.935776,1.33669]},"properties":{"id":498,"name":"Student 498","pin":470775,"address":"POSB BLOCK 775 BEDOK RESERVOIR VIEW 775 BEDOK RESERVOIR VIEW #02-33\/34","type":"home"}},{"type":"Feature","geometry":{"type":"Point","coordinates":[103.853171,1.302731]},"properties":{"id":499,"name":"Student 499","pin":188504,"address":"POSB BLOCK 775 BEDOK RESERVOIR VIEW 775 BEDOK RESERVOIR VIEW","type":"home"}},{"type":"Feature","geometry":{"type":"Point","coordinates":[103.933901,1.349652]},"properties":{"id":500,"name":"Student 500","pin":520827,"address":"POSB BLOCK 827 TAMPINES  827 TAMPINES STREET 81","type":"home"}},{"type":"Feature","geometry":{"type":"Point","coordinates":[103.853681,1.297105]},"properties":{"id":501,"name":"Student 501","pin":180231,"address":"POSB BRAS BASAH 231 BAIN STREET","type":"home"}},{"type":"Feature","geometry":{"type":"Point","coordinates":[103.757788,1.348833]},"properties":{"id":502,"name":"Student 502","pin":650272,"address":"POSB BUKIT BATOK EAST 272 BUKIT BATOK EAST AVENUE 4 #02-37","type":"home"}},{"type":"Feature","geometry":{"type":"Point","coordinates":[103.857422,1.290989]},"properties":{"id":503,"name":"Student 503","pin":39594,"address":"POSB BUKIT BATOK EAST 272 BUKIT BATOK EAST AVENUE 4","type":"home"}},{"type":"Feature","geometry":{"type":"Point","coordinates":[103.825954,1.2993594]},"properties":{"id":504,"name":"Student 504","pin":90112,"address":"POSB BUKIT PURMEI 112 BUKIT PURMEI","type":"home"}},{"type":"Feature","geometry":{"type":"Point","coordinates":[103.7862541,1.4358403]},"properties":{"id":505,"name":"Student 505","pin":738099,"address":"POSB CAUSEWAY POINT 1 WOODLANDS SQUARE","type":"home"}},{"type":"Feature","geometry":{"type":"Point","coordinates":[103.924153,1.323408]},"properties":{"id":506,"name":"Student 506","pin":461025,"address":"POSB CHAI CHEE 25A CHAI CHEE ROAD","type":"home"}},{"type":"Feature","geometry":{"type":"Point","coordinates":[78.478036,17.360559]},"properties":{"id":507,"name":"Student 507","pin":500002,"address":"POSB CHANGI VILLAGE 2 CHANGI VILLAGE","type":"home"}},{"type":"Feature","geometry":{"type":"Point","coordinates":[103.766757,1.315245]},"properties":{"id":508,"name":"Student 508","pin":120325,"address":"POSB CLEMENTI AVENUE 5 325 CLEMENTI AVENUE 5","type":"home"}},{"type":"Feature","geometry":{"type":"Point","coordinates":[103.8384858,1.2993594]},"properties":{"id":509,"name":"Student 509","pin":239732,"address":"POSB COMCENTER CAF?_ 31 EXETER ROAD","type":"home"}},{"type":"Feature","geometry":{"type":"Point","coordinates":[103.894775,1.392272]},"properties":{"id":510,"name":"Student 510","pin":545078,"address":"POSB COMPASS POINT EBC 1 SENGKANG SQUARE #01-12","type":"home"}},{"type":"Feature","geometry":{"type":"Point","coordinates":[103.830139,1.3055779]},"properties":{"id":511,"name":"Student 511","pin":239278,"address":"POSB COMPASS POINT EBC 1 SENGKANG SQUARE","type":"home"}},{"type":"Feature","geometry":{"type":"Point","coordinates":[103.8400039,1.277421]},"properties":{"id":512,"name":"Student 512","pin":80001,"address":"POSB EVERTON PARK 1 EVERTON PARK","type":"home"}},{"type":"Feature","geometry":{"type":"Point","coordinates":[108.630661,22.616532]},"properties":{"id":513,"name":"Student 513","pin":530205,"address":"POSB HEARTLAND MALL 205 HOUGANG STREET 21","type":"home"}},{"type":"Feature","geometry":{"type":"Point","coordinates":[103.95533,1.333443]},"properties":{"id":514,"name":"Student 514","pin":486047,"address":"POSB ITE COLLEGE EAST 10 SIMEI AVENUE","type":"home"}},{"type":"Feature","geometry":{"type":"Point","coordinates":[103.8263589,1.2803839]},"properties":{"id":515,"name":"Student 515","pin":160111,"address":"POSB JALAN BUKIT MERAH 111 JALAN BUKIT MERAH","type":"home"}},{"type":"Feature","geometry":{"type":"Point","coordinates":[103.640189,1.322286]},"properties":{"id":516,"name":"Student 516","pin":638988,"address":"POSB JTC TUAS FOOD CENTRE 21 TUAS AVENUE 13","type":"home"}},{"type":"Feature","geometry":{"type":"Point","coordinates":[103.7535719,1.3960177]},"properties":{"id":517,"name":"Student 517","pin":677934,"address":"POSB JTC YEW TEE 359 WOODLANDS ROAD","type":"home"}},{"type":"Feature","geometry":{"type":"Point","coordinates":[103.901182,1.303746]},"properties":{"id":518,"name":"Student 518","pin":437844,"address":"POSB KATONG SHOPPING CENTER 865 MOUNBATTEN ROAD","type":"home"}},{"type":"Feature","geometry":{"type":"Point","coordinates":[103.668578,1.292822]},"properties":{"id":519,"name":"Student 519","pin":629351,"address":"POSB KEPPEL MARINE 50 GUL ROAD","type":"home"}},{"type":"Feature","geometry":{"type":"Point","coordinates":[103.695193,1.38382]},"properties":{"id":520,"name":"Student 520","pin":709154,"address":"POSB MURAI LODGE  1 MURAI FARMWAY","type":"home"}},{"type":"Feature","geometry":{"type":"Point","coordinates":[103.8353191,1.302708]},"properties":{"id":521,"name":"Student 521","pin":238872,"address":"POSB NGEE ANN CITY 391 ORCHARD ROAD","type":"home"}},{"type":"Feature","geometry":{"type":"Point","coordinates":[103.867954,1.33182]},"properties":{"id":522,"name":"Student 522","pin":350147,"address":"POSB POTONG PASIR 147 POTONG PASIR AVENUE 1 #01-01","type":"home"}},{"type":"Feature","geometry":{"type":"Point","coordinates":[103.84686,1.2833526]},"properties":{"id":523,"name":"Student 523","pin":48423,"address":"POSB POTONG PASIR 147 POTONG PASIR AVENUE 1","type":"home"}},{"type":"Feature","geometry":{"type":"Point","coordinates":[103.820582,1.277135]},"properties":{"id":524,"name":"Student 524","pin":90015,"address":"POSB RADIN MAS NPP 15 TELOK BLANGAH CRESCENT #01-250","type":"home"}},{"type":"Feature","geometry":{"type":"Point","coordinates":[103.845021,1.285362]},"properties":{"id":525,"name":"Student 525","pin":59413,"address":"POSB RADIN MAS NPP 15 TELOK BLANGAH CRESCENT","type":"home"}},{"type":"Feature","geometry":{"type":"Point","coordinates":[103.974319,1.317675]},"properties":{"id":526,"name":"Student 526","pin":499739,"address":"POSB SAFRA RESORT 10 CHANGI COAST WALK","type":"home"}},{"type":"Feature","geometry":{"type":"Point","coordinates":[103.779601,1.288119]},"properties":{"id":527,"name":"Student 527","pin":117684,"address":"POSB SCIENCE PARK II (THE ALPHA) 10 SCIENCE PARK ROAD #01-1139A","type":"home"}},{"type":"Feature","geometry":{"type":"Point","coordinates":[103.850272,1.284013]},"properties":{"id":528,"name":"Student 528","pin":48940,"address":"POSB SCIENCE PARK II (THE ALPHA) 10 SCIENCE PARK ROAD","type":"home"}},{"type":"Feature","geometry":{"type":"Point","coordinates":[103.874489,1.369861]},"properties":{"id":529,"name":"Student 529","pin":555877,"address":"POSB SERANGOON COMMUNITY CENTRE NO 10 SERANGOON NORTH AVENUE 2 #01-130A","type":"home"}},{"type":"Feature","geometry":{"type":"Point","coordinates":[103.846127,1.298811]},"properties":{"id":530,"name":"Student 530","pin":238826,"address":"POSB SERANGOON COMMUNITY CENTRE NO 10 SERANGOON NORTH AVENUE 2","type":"home"}},{"type":"Feature","geometry":{"type":"Point","coordinates":[103.910716,1.336685]},"properties":{"id":531,"name":"Student 531","pin":417943,"address":"POSB SHUN LI INDUSTRIAL PARK 61 KAKI BUKIT AVENUE 1","type":"home"}},{"type":"Feature","geometry":{"type":"Point","coordinates":[103.699844,1.330634]},"properties":{"id":532,"name":"Student 532","pin":628087,"address":"POSB SOON LEE LODGE 31 SOON LEE ROAD","type":"home"}},{"type":"Feature","geometry":{"type":"Point","coordinates":[103.852003,1.283529]},"properties":{"id":533,"name":"Student 533","pin":49317,"address":"POSB THE ARCADE 11 COLLYER QUAY #02-50","type":"home"}},{"type":"Feature","geometry":{"type":"Point","coordinates":[103.8512186,1.2789419]},"properties":{"id":534,"name":"Student 534","pin":18960,"address":"POSB THE ARCADE 11 COLLYER QUAY","type":"home"}},{"type":"Feature","geometry":{"type":"Point","coordinates":[103.848538,1.332253]},"properties":{"id":535,"name":"Student 535","pin":310480,"address":"POSB TOA PAYOH CENTRAL 480 TOA PAYOH LORONG 6 #01-164","type":"home"}},{"type":"Feature","geometry":{"type":"Point","coordinates":[103.854921,1.299369]},"properties":{"id":536,"name":"Student 536","pin":188021,"address":"POSB TOA PAYOH CENTRAL 480 TOA PAYOH LORONG 6","type":"home"}},{"type":"Feature","geometry":{"type":"Point","coordinates":[105.639237,31.496324]},"properties":{"id":537,"name":"Student 537","pin":637397,"address":"POSB TUAS LODGE 1 90 TUAS SOUTH AVENUE 9","type":"home"}},{"type":"Feature","geometry":{"type":"Point","coordinates":[103.764132,1.303831]},"properties":{"id":538,"name":"Student 538","pin":120726,"address":"POSB WEST COAST MARKET 726 CLEMENTI WEST STREET 2 #01-09","type":"home"}},{"type":"Feature","geometry":{"type":"Point","coordinates":[103.8449108,1.2800697]},"properties":{"id":539,"name":"Student 539","pin":69184,"address":"POSB WEST COAST MARKET 726 CLEMENTI WEST STREET 2","type":"home"}},{"type":"Feature","geometry":{"type":"Point","coordinates":[103.833003,1.41606]},"properties":{"id":540,"name":"Student 540","pin":760837,"address":"POSB YISHUN 837 YISHUN STREET 81","type":"home"}},{"type":"Feature","geometry":{"type":"Point","coordinates":[103.771802,1.386569]},"properties":{"id":541,"name":"Student 541","pin":677738,"address":"POSB ZHENG HUA COMMUNITY CLUB 1 SEGAR ROAD #01-2385A","type":"home"}},{"type":"Feature","geometry":{"type":"Point","coordinates":[103.850723,1.325601]},"properties":{"id":542,"name":"Student 542","pin":329802,"address":"POSB ZHENG HUA COMMUNITY CLUB 1 SEGAR ROAD","type":"home"}},{"type":"Feature","geometry":{"type":"Point","coordinates":[83.656121,25.266167]},"properties":{"id":543,"name":"Student 543","pin":821110,"address":"PUNGGOL FIELD NEIGHBOURHOOD CENTRE - STATION 1 110A PUNGGOL FIELD #01-K1","type":"home"}},{"type":"Feature","geometry":{"type":"Point","coordinates":[103.847177,1.288376]},"properties":{"id":544,"name":"Student 544","pin":59395,"address":"PUNGGOL FIELD NEIGHBOURHOOD CENTRE - STATION 1 110A PUNGGOL FIELD","type":"home"}},{"type":"Feature","geometry":{"type":"Point","coordinates":[83.656121,25.266167]},"properties":{"id":545,"name":"Student 545","pin":821110,"address":"PUNGGOL FIELD NEIGHBOURHOOD CENTRE - STATION 2 110 A PUNGGOL FIELD #01-K1","type":"home"}},{"type":"Feature","geometry":{"type":"Point","coordinates":[103.836269,1.310572]},"properties":{"id":546,"name":"Student 546","pin":228231,"address":"PUNGGOL FIELD NEIGHBOURHOOD CENTRE - STATION 2 110 A PUNGGOL FIELD","type":"home"}},{"type":"Feature","geometry":{"type":"Point","coordinates":[103.91291,1.394214]},"properties":{"id":547,"name":"Student 547","pin":820168,"address":"PUNGGOL PLAZA 168 PUNGGOL FIELD","type":"home"}},{"type":"Feature","geometry":{"type":"Point","coordinates":[103.806102,1.294195]},"properties":{"id":548,"name":"Student 548","pin":149729,"address":"QUEENSTOWN MRT STATION 301 COMMONWEALTH AVENUE","type":"home"}},{"type":"Feature","geometry":{"type":"Point","coordinates":[103.8053743,1.2985325]},"properties":{"id":549,"name":"Student 549","pin":149297,"address":"QUEENSTOWN PUBLIC LIBRARY 53 MARGARET DRIVE","type":"home"}},{"type":"Feature","geometry":{"type":"Point","coordinates":[103.803474,1.287777]},"properties":{"id":550,"name":"Student 550","pin":149053,"address":"QUEENSWAY SHOPPING CENTRE 1 QUEENSWAY","type":"home"}},{"type":"Feature","geometry":{"type":"Point","coordinates":[103.833406,1.273548]},"properties":{"id":551,"name":"Student 551","pin":88702,"address":"RAEBURN PARK 10 RAEBURN PARK","type":"home"}},{"type":"Feature","geometry":{"type":"Point","coordinates":[103.8528128,1.2941178]},"properties":{"id":552,"name":"Student 552","pin":179103,"address":"RAFFLES CITY SHOPPING CENTRE - STATION 1 252 NORTH BRIDGE ROAD #B1-00","type":"home"}},{"type":"Feature","geometry":{"type":"Point","coordinates":[103.8487542,1.2840123]},"properties":{"id":553,"name":"Student 553","pin":49481,"address":"RAFFLES CITY SHOPPING CENTRE - STATION 1 252 NORTH BRIDGE ROAD","type":"home"}},{"type":"Feature","geometry":{"type":"Point","coordinates":[103.8528128,1.2941178]},"properties":{"id":554,"name":"Student 554","pin":179103,"address":"RAFFLES CITY SHOPPING CENTRE - STATION 2 252 NORTH BRIDGE ROAD #B1-00","type":"home"}},{"type":"Feature","geometry":{"type":"Point","coordinates":[103.8558964,1.2920047]},"properties":{"id":555,"name":"Student 555","pin":39393,"address":"RAFFLES CITY SHOPPING CENTRE - STATION 2 252 NORTH BRIDGE ROAD","type":"home"}},{"type":"Feature","geometry":{"type":"Point","coordinates":[103.842422,1.346326]},"properties":{"id":556,"name":"Student 556","pin":574013,"address":"RAFFLES JUNIOR COLLEGE 10 BISHAN STREET 21","type":"home"}},{"type":"Feature","geometry":{"type":"Point","coordinates":[103.851421,1.284496]},"properties":{"id":557,"name":"Student 557","pin":48618,"address":"RAFFLES PLACE MRT STATION 5 RAFFLES PLACE","type":"home"}},{"type":"Feature","geometry":{"type":"Point","coordinates":[103.816485,1.289719]},"properties":{"id":558,"name":"Student 558","pin":158792,"address":"REDHILL MRT STATION 920 TIONG BAHRU ROAD","type":"home"}},{"type":"Feature","geometry":{"type":"Point","coordinates":[103.826019,1.312934]},"properties":{"id":559,"name":"Student 559","pin":258352,"address":"RELC 30 ORANGE GROVE ROAD","type":"home"}},{"type":"Feature","geometry":{"type":"Point","coordinates":[103.8508359,1.2832428]},"properties":{"id":560,"name":"Student 560","pin":48619,"address":"REPUBLIC PLAZA 9 RAFFLES PLACE","type":"home"}},{"type":"Feature","geometry":{"type":"Point","coordinates":[103.785453,1.442737]},"properties":{"id":561,"name":"Student 561","pin":738961,"address":"REPUBLIC POLYTECHNIC CENTRE 3 WOODLANDS AVENUE 9","type":"home"}},{"type":"Feature","geometry":{"type":"Point","coordinates":[-122.25,47.46]},"properties":{"id":562,"name":"Student 562","pin":98138,"address":"RESORT WORLD SENTOSA BASEMENT 1 FORUM - STATION 1 26 SENTOSA GATEWAY","type":"home"}},{"type":"Feature","geometry":{"type":"Point","coordinates":[-122.25,47.46]},"properties":{"id":563,"name":"Student 563","pin":98138,"address":"RESORT WORLD SENTOSA BASEMENT 1 FORUM - STATION 2 26 SENTOSA GATEWAY","type":"home"}},{"type":"Feature","geometry":{"type":"Point","coordinates":[103.842132,1.319536]},"properties":{"id":564,"name":"Student 564","pin":307987,"address":"REVENUE HOUSE 55 NEWTON ROAD","type":"home"}},{"type":"Feature","geometry":{"type":"Point","coordinates":[103.849177,1.2814495]},"properties":{"id":565,"name":"Student 565","pin":69531,"address":"RHB BANK BUILDING 90 CECIL STREET","type":"home"}},{"type":"Feature","geometry":{"type":"Point","coordinates":[103.767581,1.359483]},"properties":{"id":566,"name":"Student 566","pin":678064,"address":"RHB BUKIT TIMAH 440\/442 UPPER BUKIT TIMAH, THE RAIL MAIL","type":"home"}},{"type":"Feature","geometry":{"type":"Point","coordinates":[103.885155,1.313736]},"properties":{"id":567,"name":"Student 567","pin":389492,"address":"RHB GEYLANG ROAD 537 GEYLANG ROAD #B4-K3","type":"home"}},{"type":"Feature","geometry":{"type":"Point","coordinates":[103.8623865,1.3186437]},"properties":{"id":568,"name":"Student 568","pin":330024,"address":"RHB GEYLANG ROAD 537 GEYLANG ROAD","type":"home"}},{"type":"Feature","geometry":{"type":"Point","coordinates":[103.8546719,1.304039]},"properties":{"id":569,"name":"Student 569","pin":208787,"address":"RHB JALAN BESAR 10 JALAN BESAR SIM LIM TOWER","type":"home"}},{"type":"Feature","geometry":{"type":"Point","coordinates":[103.902379,1.304117]},"properties":{"id":570,"name":"Student 570","pin":428741,"address":"RHB KATONG 14-18 EAST COAST ROAD","type":"home"}},{"type":"Feature","geometry":{"type":"Point","coordinates":[103.904984,1.392002]},"properties":{"id":571,"name":"Student 571","pin":545082,"address":"RIVERVALE MALL - STATION 1 11 RIVERVALE CRESCENT","type":"home"}},{"type":"Feature","geometry":{"type":"Point","coordinates":[103.904984,1.392002]},"properties":{"id":572,"name":"Student 572","pin":545082,"address":"RIVERVALE MALL - STATION 2 11 RIVERVALE CRESCENT","type":"home"}},{"type":"Feature","geometry":{"type":"Point","coordinates":[103.901579,1.385427]},"properties":{"id":573,"name":"Student 573","pin":540118,"address":"RIVERVALE PLAZA 118 RIVERVALE DRIVE","type":"home"}},{"type":"Feature","geometry":{"type":"Point","coordinates":[103.8371889,1.3029619]},"properties":{"id":574,"name":"Student 574","pin":238855,"address":"ROBINSONS @ HEEREN 260 ORCHARD ROAD BASEMENT 1","type":"home"}},{"type":"Feature","geometry":{"type":"Point","coordinates":[103.855409,1.368487]},"properties":{"id":575,"name":"Student 575","pin":560450,"address":"S11 ANG MO KIO BLOCK 450 450 ANG MO KIO AVENUE 10","type":"home"}},{"type":"Feature","geometry":{"type":"Point","coordinates":[103.847915,1.371438]},"properties":{"id":576,"name":"Student 576","pin":560711,"address":"S11 ANG MO KIO BLOCK 711 711 ANG MO KIO AVENUE 8","type":"home"}},{"type":"Feature","geometry":{"type":"Point","coordinates":[103.751484,1.349365]},"properties":{"id":577,"name":"Student 577","pin":650640,"address":"S11 BUKIT BATOK CENTRAL BLOCK 640 640 BUKIT BATOK CENTRAL","type":"home"}},{"type":"Feature","geometry":{"type":"Point","coordinates":[103.748004,1.395329]},"properties":{"id":578,"name":"Student 578","pin":681787,"address":"S11 CHOA CHU KANG BLOCK 787B 787B CHOA CHU KANG DRIVE","type":"home"}},{"type":"Feature","geometry":{"type":"Point","coordinates":[103.890682,1.353425]},"properties":{"id":579,"name":"Student 579","pin":530107,"address":"S11 HOUGANG BLOCK 107 107 HOUGANG AVENUE 1","type":"home"}},{"type":"Feature","geometry":{"type":"Point","coordinates":[103.721968,1.33413]},"properties":{"id":580,"name":"Student 580","pin":618497,"address":"S11 TAMAN JURONG 101 YUNG SHENG ROAD","type":"home"}},{"type":"Feature","geometry":{"type":"Point","coordinates":[103.945907,1.355917]},"properties":{"id":581,"name":"Student 581","pin":520506,"address":"S11 TAMPINES BLOCK 506 506 TAMPINES CENTRAL 1","type":"home"}},{"type":"Feature","geometry":{"type":"Point","coordinates":[103.7746389,1.431536]},"properties":{"id":582,"name":"Student 582","pin":730302,"address":"S11 WOODLANDS BLOCK 302 302 WOODLANDS STREET 31","type":"home"}},{"type":"Feature","geometry":{"type":"Point","coordinates":[103.8014763,1.43464]},"properties":{"id":583,"name":"Student 583","pin":730630,"address":"S11 WOODLANDS BLOCK 630A 630A WOODLANDS RING ROAD","type":"home"}},{"type":"Feature","geometry":{"type":"Point","coordinates":[103.833876,1.429206]},"properties":{"id":584,"name":"Student 584","pin":760744,"address":"S11 YISHUN BLOCK 744 744 YISHUN STREET 72","type":"home"}},{"type":"Feature","geometry":{"type":"Point","coordinates":[103.716757,1.345463]},"properties":{"id":585,"name":"Student 585","pin":649808,"address":"SAFRA JURONG 333 BOON LAY WAY","type":"home"}},{"type":"Feature","geometry":{"type":"Point","coordinates":[-54.255217,-28.281671]},"properties":{"id":586,"name":"Student 586","pin":98803,"address":"SAFRA MOUNT FABER 2 TELOK BLANGAH WAY","type":"home"}},{"type":"Feature","geometry":{"type":"Point","coordinates":[103.941739,1.344724]},"properties":{"id":587,"name":"Student 587","pin":528882,"address":"SAFRA TAMPINES CLUB 1\/A TAMPINES STREET 92","type":"home"}},{"type":"Feature","geometry":{"type":"Point","coordinates":[103.854256,1.329911]},"properties":{"id":588,"name":"Student 588","pin":319387,"address":"SAFRA TOA PAYOH 293 LORONG 6 TOA PAYOH","type":"home"}},{"type":"Feature","geometry":{"type":"Point","coordinates":[103.8407407,1.4237758]},"properties":{"id":589,"name":"Student 589","pin":769027,"address":"SAFRA YISHUN COUNTRY CLUB 60 YISHUN AVENUE 4","type":"home"}},{"type":"Feature","geometry":{"type":"Point","coordinates":[103.683902,1.332772]},"properties":{"id":590,"name":"Student 590","pin":638364,"address":"SAFTI MILITARY INSTITUTION 500 UPPER JURONG ROAD","type":"home"}},{"type":"Feature","geometry":{"type":"Point","coordinates":[103.89376,1.334208]},"properties":{"id":591,"name":"Student 591","pin":408827,"address":"SCDF HQ 91 UBI AVENUE 4 #01-11","type":"home"}},{"type":"Feature","geometry":{"type":"Point","coordinates":[103.8552799,1.289857]},"properties":{"id":592,"name":"Student 592","pin":38981,"address":"SCDF HQ 91 UBI AVENUE 4","type":"home"}},{"type":"Feature","geometry":{"type":"Point","coordinates":[103.790416,1.287916]},"properties":{"id":593,"name":"Student 593","pin":118260,"address":"SCIENCE HUB 87 SCIENCE PARK DRIVE SCIENCE PARK 2","type":"home"}},{"type":"Feature","geometry":{"type":"Point","coordinates":[103.864268,1.418735]},"properties":{"id":594,"name":"Student 594","pin":797794,"address":"SELETAR AIRPORT 556 WEST CAMP ROAD","type":"home"}},{"type":"Feature","geometry":{"type":"Point","coordinates":[103.871118,1.409565]},"properties":{"id":595,"name":"Student 595","pin":797770,"address":"SELETAR CAMP 246 PICCADILLY","type":"home"}},{"type":"Feature","geometry":{"type":"Point","coordinates":[103.8193777,1.4537399]},"properties":{"id":596,"name":"Student 596","pin":750511,"address":"SEMBAWANG MART - STATION 1 511 CANBERRA ROAD","type":"home"}},{"type":"Feature","geometry":{"type":"Point","coordinates":[103.8193777,1.4537399]},"properties":{"id":597,"name":"Student 597","pin":750511,"address":"SEMBAWANG MART - STATION 2 511 CANBERRA ROAD","type":"home"}},{"type":"Feature","geometry":{"type":"Point","coordinates":[103.819791,1.449009]},"properties":{"id":598,"name":"Student 598","pin":759775,"address":"SEMBAWANG MRT STATION 11 CANBERRA ROAD","type":"home"}},{"type":"Feature","geometry":{"type":"Point","coordinates":[103.8267363,1.4324869]},"properties":{"id":599,"name":"Student 599","pin":758527,"address":"SEMBAWANG PARK 1221 SEMBAWANG ROAD","type":"home"}},{"type":"Feature","geometry":{"type":"Point","coordinates":[103.824824,1.441872]},"properties":{"id":600,"name":"Student 600","pin":758460,"address":"SEMBAWANG SHOPPING CENTRE - STATION 1 604A SEMBAWANG ROAD BASEMENT 1","type":"home"}},{"type":"Feature","geometry":{"type":"Point","coordinates":[103.824824,1.441872]},"properties":{"id":601,"name":"Student 601","pin":758460,"address":"SEMBAWANG SHOPPING CENTRE - STATION 2 604A SEMBAWANG ROAD BASEMENT 1","type":"home"}},{"type":"Feature","geometry":{"type":"Point","coordinates":[103.8288369,1.430859]},"properties":{"id":602,"name":"Student 602","pin":760102,"address":"SEMBAWANG TOWN COUNCIL 102 YISHUN AVENUE 5","type":"home"}},{"type":"Feature","geometry":{"type":"Point","coordinates":[103.777277,1.442977]},"properties":{"id":603,"name":"Student 603","pin":730019,"address":"SEMBAWANG TOWN COUNCIL 19 MARSILING LANE","type":"home"}},{"type":"Feature","geometry":{"type":"Point","coordinates":[103.8361372,1.4360897]},"properties":{"id":604,"name":"Student 604","pin":760291,"address":"SEMBAWANG TOWN COUNCIL 291 YISHUN STREET 22","type":"home"}},{"type":"Feature","geometry":{"type":"Point","coordinates":[103.7753111,1.4297308]},"properties":{"id":605,"name":"Student 605","pin":730303,"address":"SEMBAWANG TOWN COUNCIL 306A WOODLANDS STREET 31","type":"home"}},{"type":"Feature","geometry":{"type":"Point","coordinates":[103.8186264,1.449661]},"properties":{"id":606,"name":"Student 606","pin":750355,"address":"SEMBAWANG TOWN COUNCIL 355 SEMBAWANG WAY","type":"home"}},{"type":"Feature","geometry":{"type":"Point","coordinates":[103.846593,1.424554]},"properties":{"id":607,"name":"Student 607","pin":760414,"address":"SEMBAWANG TOWN COUNCIL 414 YISHUN RING ROAD","type":"home"}},{"type":"Feature","geometry":{"type":"Point","coordinates":[103.7698554,1.4398829]},"properties":{"id":608,"name":"Student 608","pin":731005,"address":"SEMBAWANG TOWN COUNCIL 5A WOODLANDS CENTRE ROAD","type":"home"}},{"type":"Feature","geometry":{"type":"Point","coordinates":[103.836589,1.425757]},"properties":{"id":609,"name":"Student 609","pin":760934,"address":"SEMBAWANG TOWN COUNCIL 934 YISHUN CENTRAL","type":"home"}},{"type":"Feature","geometry":{"type":"Point","coordinates":[103.901579,1.385427]},"properties":{"id":610,"name":"Student 610","pin":540118,"address":"SENGKANG HDB BRANCH OFFICE 118 RIVERVALE DRIVE #02-01","type":"home"}},{"type":"Feature","geometry":{"type":"Point","coordinates":[103.864159,1.370763]},"properties":{"id":611,"name":"Student 611","pin":569927,"address":"SENGKANG HDB BRANCH OFFICE 118 RIVERVALE DRIVE","type":"home"}},{"type":"Feature","geometry":{"type":"Point","coordinates":[-122.55106,45.799973]},"properties":{"id":612,"name":"Student 612","pin":98604,"address":"SENTOSA BEACH STATION 50 BEACH VIEW #L1-03","type":"home"}},{"type":"Feature","geometry":{"type":"Point","coordinates":[103.8396503,1.3007405]},"properties":{"id":613,"name":"Student 613","pin":48581,"address":"SENTOSA BEACH STATION 50 BEACH VIEW","type":"home"}},{"type":"Feature","geometry":{"type":"Point","coordinates":[103.866835,1.363381]},"properties":{"id":614,"name":"Student 614","pin":555945,"address":"SERANGOON GARDEN MARKET 49A SERANGOON GARDEN WAY","type":"home"}},{"type":"Feature","geometry":{"type":"Point","coordinates":[103.85119,1.324989]},"properties":{"id":615,"name":"Student 615","pin":329783,"address":"SHAW PLAZA 360 BALESTIER ROAD","type":"home"}},{"type":"Feature","geometry":{"type":"Point","coordinates":[103.8565696,1.2964962]},"properties":{"id":616,"name":"Student 616","pin":189702,"address":"SHAW TOWER 100 BEACH ROAD","type":"home"}},{"type":"Feature","geometry":{"type":"Point","coordinates":[103.703404,1.348808]},"properties":{"id":617,"name":"Student 617","pin":649486,"address":"SHENG SIONG SUPERMARKET 7 JURONG WEST AVENUE 5","type":"home"}},{"type":"Feature","geometry":{"type":"Point","coordinates":[103.965869,1.345815]},"properties":{"id":618,"name":"Student 618","pin":486852,"address":"SIA TRAINING CENTRE 720 UPPER CHANGI ROAD EAST","type":"home"}},{"type":"Feature","geometry":{"type":"Point","coordinates":[103.8546719,1.304039]},"properties":{"id":619,"name":"Student 619","pin":208787,"address":"SIM LIM TOWER 10 JALAN BESAR","type":"home"}},{"type":"Feature","geometry":{"type":"Point","coordinates":[103.953583,1.342977]},"properties":{"id":620,"name":"Student 620","pin":529888,"address":"SIMEI MRT STATION 30 SIMEI STREET 3","type":"home"}},{"type":"Feature","geometry":{"type":"Point","coordinates":[103.878559,1.316634]},"properties":{"id":621,"name":"Student 621","pin":380061,"address":"SIMS DRIVE HDB BRANCH OFFICE - STATION 1 61 SIMS DRIVE","type":"home"}},{"type":"Feature","geometry":{"type":"Point","coordinates":[103.878559,1.316634]},"properties":{"id":622,"name":"Student 622","pin":380061,"address":"SIMS DRIVE HDB BRANCH OFFICE - STATION 2 61 SIMS DRIVE","type":"home"}},{"type":"Feature","geometry":{"type":"Point","coordinates":[103.868183,1.372507]},"properties":{"id":623,"name":"Student 623","pin":554915,"address":"SINGTEL ISRN BUILDING 1 SERANGOON NORTH AVENUE 5","type":"home"}},{"type":"Feature","geometry":{"type":"Point","coordinates":[103.852202,1.2968599]},"properties":{"id":624,"name":"Student 624","pin":188065,"address":"SMU ADMINISTRATION BUILDING 81 VICTORIA STREET","type":"home"}},{"type":"Feature","geometry":{"type":"Point","coordinates":[103.850094,1.2967089]},"properties":{"id":625,"name":"Student 625","pin":178902,"address":"SMU, SCHOOL OF INFO SYSTEM 80 STAMFORD ROAD","type":"home"}},{"type":"Feature","geometry":{"type":"Point","coordinates":[103.789927,1.298109]},"properties":{"id":626,"name":"Student 626","pin":138628,"address":"SOLARIS BUILDING 1 FUSIONPOLIS WALK","type":"home"}},{"type":"Feature","geometry":{"type":"Point","coordinates":[103.839051,1.300256]},"properties":{"id":627,"name":"Student 627","pin":238162,"address":"SOMERSET MRT STATION 1 SOMERSET MRT STATION","type":"home"}},{"type":"Feature","geometry":{"type":"Point","coordinates":[103.8136943,1.3281251]},"properties":{"id":628,"name":"Student 628","pin":289896,"address":"SPC ADAM 31 ADAM ROAD","type":"home"}},{"type":"Feature","geometry":{"type":"Point","coordinates":[103.8396734,1.3652894]},"properties":{"id":629,"name":"Student 629","pin":569975,"address":"SPC ANG MO KIO 793 ANG MO KIO AVENUE 1","type":"home"}},{"type":"Feature","geometry":{"type":"Point","coordinates":[103.854453,1.362065]},"properties":{"id":630,"name":"Student 630","pin":569866,"address":"SPC ANG MO KIO AVENUE 5 2761 ANG MO KIO AVENUE 5","type":"home"}},{"type":"Feature","geometry":{"type":"Point","coordinates":[103.847936,1.326652]},"properties":{"id":631,"name":"Student 631","pin":329837,"address":"SPC BALESTIER 462 BALESTIER ROAD","type":"home"}},{"type":"Feature","geometry":{"type":"Point","coordinates":[103.939713,1.327927]},"properties":{"id":632,"name":"Student 632","pin":469678,"address":"SPC BEDOK 101 BEDOK NORTH ROAD","type":"home"}},{"type":"Feature","geometry":{"type":"Point","coordinates":[103.846259,1.343517]},"properties":{"id":633,"name":"Student 633","pin":579706,"address":"SPC BRADDELL 317 BRADDELL ROAD","type":"home"}},{"type":"Feature","geometry":{"type":"Point","coordinates":[103.818404,1.284227]},"properties":{"id":634,"name":"Student 634","pin":159464,"address":"SPC BUKIT MERAH 3800 JALAN BUKIT MERAH","type":"home"}},{"type":"Feature","geometry":{"type":"Point","coordinates":[103.7724269,1.3782572]},"properties":{"id":635,"name":"Student 635","pin":679945,"address":"SPC BUKIT PANJANG 41 BUKIT PANJANG RING ROAD","type":"home"}},{"type":"Feature","geometry":{"type":"Point","coordinates":[103.8089412,1.3249552]},"properties":{"id":636,"name":"Student 636","pin":269733,"address":"SPC BUKIT TIMAH 623A BUKIT TIMAH ROAD","type":"home"}},{"type":"Feature","geometry":{"type":"Point","coordinates":[103.795075,1.305726]},"properties":{"id":637,"name":"Student 637","pin":149736,"address":"SPC COMMONWEALTH 490 COMMONWEALTH AVENUE","type":"home"}},{"type":"Feature","geometry":{"type":"Point","coordinates":[103.8267934,1.2898266]},"properties":{"id":638,"name":"Student 638","pin":169630,"address":"SPC HAVELOCK 397 HAVELOCK ROAD","type":"home"}},{"type":"Feature","geometry":{"type":"Point","coordinates":[103.884308,1.368567]},"properties":{"id":639,"name":"Student 639","pin":538858,"address":"SPC HOUGANG 120 HOUGANG AVENUE 2","type":"home"}},{"type":"Feature","geometry":{"type":"Point","coordinates":[103.714772,1.314745]},"properties":{"id":640,"name":"Student 640","pin":619487,"address":"SPC JALAN BUROH 33 JALAN BUROH","type":"home"}},{"type":"Feature","geometry":{"type":"Point","coordinates":[103.737369,1.342382]},"properties":{"id":641,"name":"Student 641","pin":609786,"address":"SPC JURONG EAST 91 JURONG EAST AVENUE 1","type":"home"}},{"type":"Feature","geometry":{"type":"Point","coordinates":[103.714722,1.349375]},"properties":{"id":642,"name":"Student 642","pin":649519,"address":"SPC JURONG WEST 100 JURONG WEST AVENUE 1","type":"home"}},{"type":"Feature","geometry":{"type":"Point","coordinates":[103.837996,1.296849]},"properties":{"id":643,"name":"Student 643","pin":239562,"address":"SPC KILLINEY 132 KILLINEY ROAD","type":"home"}},{"type":"Feature","geometry":{"type":"Point","coordinates":[103.880302,1.331888]},"properties":{"id":644,"name":"Student 644","pin":368140,"address":"SPC MACPHERSON 429 MACPHERSON ROAD","type":"home"}},{"type":"Feature","geometry":{"type":"Point","coordinates":[103.884384,1.302035]},"properties":{"id":645,"name":"Student 645","pin":437734,"address":"SPC MOUNTBATTEN 710 MOUNTBATTEN ROAD","type":"home"}},{"type":"Feature","geometry":{"type":"Point","coordinates":[103.790603,1.277156]},"properties":{"id":646,"name":"Student 646","pin":118555,"address":"SPC PASIR PANJANG 158 PASIR PANJANG ROAD","type":"home"}},{"type":"Feature","geometry":{"type":"Point","coordinates":[103.960372,1.370928]},"properties":{"id":647,"name":"Student 647","pin":519456,"address":"SPC PASIR RIS 11 PASIR RIS DRIVE 4","type":"home"}},{"type":"Feature","geometry":{"type":"Point","coordinates":[103.909266,1.400532]},"properties":{"id":648,"name":"Student 648","pin":828839,"address":"SPC PUNGGOL  100 PUNGGOL CENTRAL","type":"home"}},{"type":"Feature","geometry":{"type":"Point","coordinates":[103.8036319,1.288705]},"properties":{"id":649,"name":"Student 649","pin":149062,"address":"SPC QUEENSWAY 264 QUEENSWAY","type":"home"}},{"type":"Feature","geometry":{"type":"Point","coordinates":[103.8248195,1.2932097]},"properties":{"id":650,"name":"Student 650","pin":248994,"address":"SPC RIVER VALLEY 2 JERVOIS ROAD","type":"home"}},{"type":"Feature","geometry":{"type":"Point","coordinates":[103.8251921,1.4400047]},"properties":{"id":651,"name":"Student 651","pin":758448,"address":"SPC SEMBAWANG 588 SEMBAWANG ROAD","type":"home"}},{"type":"Feature","geometry":{"type":"Point","coordinates":[103.887406,1.388024]},"properties":{"id":652,"name":"Student 652","pin":544885,"address":"SPC SENGKANG EAST  91 SENGKANG EAST WAY","type":"home"}},{"type":"Feature","geometry":{"type":"Point","coordinates":[103.894684,1.308311]},"properties":{"id":653,"name":"Student 653","pin":437168,"address":"SPC TANJONG KATONG 1 SWANAGE ROAD","type":"home"}},{"type":"Feature","geometry":{"type":"Point","coordinates":[103.807064,1.271809]},"properties":{"id":654,"name":"Student 654","pin":109027,"address":"SPC TELOK BLANGAH 616 TELOK BLANGAH","type":"home"}},{"type":"Feature","geometry":{"type":"Point","coordinates":[103.841602,1.324793]},"properties":{"id":655,"name":"Student 655","pin":307673,"address":"SPC THOMSON 327 THOMSON ROAD","type":"home"}},{"type":"Feature","geometry":{"type":"Point","coordinates":[103.8554939,1.335755]},"properties":{"id":656,"name":"Student 656","pin":319381,"address":"SPC TOA PAYOH 180 TOA PAYOH LORONG 6","type":"home"}},{"type":"Feature","geometry":{"type":"Point","coordinates":[103.930981,1.313866]},"properties":{"id":657,"name":"Student 657","pin":455253,"address":"SPC UPPER EAST COAST 157 UPPER EAST COAST ROAD","type":"home"}},{"type":"Feature","geometry":{"type":"Point","coordinates":[103.883008,1.358332]},"properties":{"id":658,"name":"Student 658","pin":534686,"address":"SPC UPPER SERANGOON 849 UPPER SERANGOON ROAD","type":"home"}},{"type":"Feature","geometry":{"type":"Point","coordinates":[103.837778,1.348829]},"properties":{"id":659,"name":"Student 659","pin":574330,"address":"SPC UPPER THOMSON 98 UPPER THOMSON ROAD","type":"home"}},{"type":"Feature","geometry":{"type":"Point","coordinates":[103.776276,1.4425079]},"properties":{"id":660,"name":"Student 660","pin":739981,"address":"SPC WOODLANDS 250 ADMIRALTY ROAD","type":"home"}},{"type":"Feature","geometry":{"type":"Point","coordinates":[103.837996,1.296849]},"properties":{"id":661,"name":"Student 661","pin":545570,"address":"SPC YIO CHU KANG 76 YIO CHU KANG ROAD","type":"home"}},{"type":"Feature","geometry":{"type":"Point","coordinates":[103.837789,1.417558]},"properties":{"id":662,"name":"Student 662","pin":768683,"address":"SPC YISHUN 599 YISHUN RING ROAD","type":"home"}},{"type":"Feature","geometry":{"type":"Point","coordinates":[103.712539,1.339471]},"properties":{"id":663,"name":"Student 663","pin":619523,"address":"ST KINETICS 249 JALAN BOON LAY","type":"home"}},{"type":"Feature","geometry":{"type":"Point","coordinates":[103.851667,1.285539]},"properties":{"id":664,"name":"Student 664","pin":49909,"address":"STANDARD CHARTERED BATTERY ROAD 6 BATTERY ROAD","type":"home"}},{"type":"Feature","geometry":{"type":"Point","coordinates":[103.795351,1.311682]},"properties":{"id":665,"name":"Student 665","pin":278986,"address":"STANDARD CHARTERED HOLLAND VILLAGE 261 HOLLAND AVENUE","type":"home"}},{"type":"Feature","geometry":{"type":"Point","coordinates":[103.905569,1.302638]},"properties":{"id":666,"name":"Student 666","pin":440087,"address":"STANDARD CHARTERED MARINE PARADE 87 MARINE PARADE CENTRAL #01-520","type":"home"}},{"type":"Feature","geometry":{"type":"Point","coordinates":[103.8436139,1.3708109]},"properties":{"id":667,"name":"Student 667","pin":560128,"address":"STANDARD CHARTERED MARINE PARADE 87 MARINE PARADE CENTRAL","type":"home"}},{"type":"Feature","geometry":{"type":"Point","coordinates":[103.865464,1.363814]},"properties":{"id":668,"name":"Student 668","pin":555963,"address":"STANDARD CHARTERED SERANGOON GARDEN 67 SERANGOON GARDEN WAY","type":"home"}},{"type":"Feature","geometry":{"type":"Point","coordinates":[103.943035,1.352584]},"properties":{"id":669,"name":"Student 669","pin":529540,"address":"STANDARD CHARTERED TAMPINES 3 TAMPINES CENTRAL 1 ABACUS PLAZA #01-01","type":"home"}},{"type":"Feature","geometry":{"type":"Point","coordinates":[103.798641,1.330924]},"properties":{"id":670,"name":"Student 670","pin":289630,"address":"STANDARD CHARTERED TAMPINES 3 TAMPINES CENTRAL 1 ABACUS PLAZA","type":"home"}},{"type":"Feature","geometry":{"type":"Point","coordinates":[103.8341222,1.3539057]},"properties":{"id":671,"name":"Student 671","pin":574370,"address":"STANDARD CHARTERED UPPER THOMSON 246R UPPER THOMSON ROAD","type":"home"}},{"type":"Feature","geometry":{"type":"Point","coordinates":[103.787195,1.435152]},"properties":{"id":672,"name":"Student 672","pin":730900,"address":"STANDARD CHARTERED WOODLANDS 900 SOUTH WOODLANDS DRIVE CIVIC CENTRE #02-07","type":"home"}},{"type":"Feature","geometry":{"type":"Point","coordinates":[103.8587,1.2987612]},"properties":{"id":673,"name":"Student 673","pin":189720,"address":"STANDARD CHARTERED WOODLANDS 900 SOUTH WOODLANDS DRIVE CIVIC CENTRE","type":"home"}},{"type":"Feature","geometry":{"type":"Point","coordinates":[103.892629,1.324713]},"properties":{"id":674,"name":"Student 674","pin":408942,"address":"STARHUB GREEN 67 UBI AVENUE 1","type":"home"}},{"type":"Feature","geometry":{"type":"Point","coordinates":[103.8451045,1.3006139]},"properties":{"id":675,"name":"Student 675","pin":238839,"address":"STARHUB SHOP PLAZA SINGAPURA 68 ORCHARD ROAD #B2-17","type":"home"}},{"type":"Feature","geometry":{"type":"Point","coordinates":[103.8319512,1.2936891]},"properties":{"id":676,"name":"Student 676","pin":237994,"address":"STARHUB SHOP PLAZA SINGAPURA 68 ORCHARD ROAD","type":"home"}},{"type":"Feature","geometry":{"type":"Point","coordinates":[103.842371,1.439902]},"properties":{"id":677,"name":"Student 677","pin":768442,"address":"STATS CHIPPAC 5 YISHUN STREET 23","type":"home"}},{"type":"Feature","geometry":{"type":"Point","coordinates":[103.858861,1.339809]},"properties":{"id":678,"name":"Student 678","pin":319255,"address":"SUBARU TOA PAYOH 19 LORONG 8 TOA PAYOH","type":"home"}},{"type":"Feature","geometry":{"type":"Point","coordinates":[103.838668,1.281059]},"properties":{"id":679,"name":"Student 679","pin":59763,"address":"SUBORDINATE COURT 2 HAVELOCK ROAD","type":"home"}},{"type":"Feature","geometry":{"type":"Point","coordinates":[103.8400999,1.2916819]},"properties":{"id":680,"name":"Student 680","pin":238993,"address":"SULTAN LINK 53 MOHAMED SULTAN ROAD","type":"home"}},{"type":"Feature","geometry":{"type":"Point","coordinates":[103.861969,1.302832]},"properties":{"id":681,"name":"Student 681","pin":199001,"address":"SULTAN PLAZA 100 JALAN SULTAN","type":"home"}},{"type":"Feature","geometry":{"type":"Point","coordinates":[103.73862,1.377746]},"properties":{"id":682,"name":"Student 682","pin":680475,"address":"SUNSHINE PLACE - STATION 1 475 CHOA CHU KANG AVENUE 3","type":"home"}},{"type":"Feature","geometry":{"type":"Point","coordinates":[103.73862,1.377746]},"properties":{"id":683,"name":"Student 683","pin":680475,"address":"SUNSHINE PLACE - STATION 2 475 CHOA CHU KANG AVENUE 3","type":"home"}},{"type":"Feature","geometry":{"type":"Point","coordinates":[103.858967,1.295968]},"properties":{"id":684,"name":"Student 684","pin":38983,"address":"SUNTEC CITY MALL (MANHATTAN FISH MARKET) - STATION 1 3 TEMASEK BOULEVARD BASEMENT 1","type":"home"}},{"type":"Feature","geometry":{"type":"Point","coordinates":[103.721053,1.334774]},"properties":{"id":685,"name":"Student 685","pin":610399,"address":"TAMAN JURONG SHOPPING CENTRE - STATION 1 399 YUNG SHENG ROAD","type":"home"}},{"type":"Feature","geometry":{"type":"Point","coordinates":[103.721053,1.3347739]},"properties":{"id":686,"name":"Student 686","pin":610399,"address":"TAMAN JURONG SHOPPING CENTRE - STATION 2 399 YUNG SHENG ROAD","type":"home"}},{"type":"Feature","geometry":{"type":"Point","coordinates":[111.835197,21.577407]},"properties":{"id":687,"name":"Student 687","pin":529536,"address":"TAMPINES 1  10 TAMPINES CENTRAL 1","type":"home"}},{"type":"Feature","geometry":{"type":"Point","coordinates":[103.934462,1.355507]},"properties":{"id":688,"name":"Student 688","pin":521866,"address":"TAMPINES CENTRAL COMMUNITY COMPLEX 866A TAMPINES STREET 83","type":"home"}},{"type":"Feature","geometry":{"type":"Point","coordinates":[103.947446,1.345753]},"properties":{"id":689,"name":"Student 689","pin":529453,"address":"TAMPINES CHANGKAT COMMUNITY CLUB 13 TAMPINES STREET 11","type":"home"}},{"type":"Feature","geometry":{"type":"Point","coordinates":[103.945245,1.3526609]},"properties":{"id":690,"name":"Student 690","pin":524785,"address":"TAMPINES MALL - STATION 1 4 TAMPINES CENTRAL","type":"home"}},{"type":"Feature","geometry":{"type":"Point","coordinates":[103.945245,1.352661]},"properties":{"id":691,"name":"Student 691","pin":529510,"address":"TAMPINES MALL - STATION 2 4 TAMPINES CENTRAL 5 #02-00","type":"home"}},{"type":"Feature","geometry":{"type":"Point","coordinates":[103.8214415,1.2827353]},"properties":{"id":692,"name":"Student 692","pin":159458,"address":"TAMPINES MALL - STATION 2 4 TAMPINES CENTRAL 5","type":"home"}},{"type":"Feature","geometry":{"type":"Point","coordinates":[103.960579,1.353795]},"properties":{"id":693,"name":"Student 693","pin":529286,"address":"TAMPINES MART - STATION 1 7 TAMPINES STREET 32","type":"home"}},{"type":"Feature","geometry":{"type":"Point","coordinates":[103.960579,1.353795]},"properties":{"id":694,"name":"Student 694","pin":529286,"address":"TAMPINES MART - STATION 2 7 TAMPINES STREET 32","type":"home"}},{"type":"Feature","geometry":{"type":"Point","coordinates":[103.945119,1.353448]},"properties":{"id":695,"name":"Student 695","pin":529538,"address":"TAMPINES MRT STATION 20 TAMPINES CENTRAL","type":"home"}},{"type":"Feature","geometry":{"type":"Point","coordinates":[103.944872,1.354627]},"properties":{"id":696,"name":"Student 696","pin":520510,"address":"TAMPINES TOWN COUNCIL - TAMPINES HDB BRANCH OFFICE 510 TAMPINES CENTRAL","type":"home"}},{"type":"Feature","geometry":{"type":"Point","coordinates":[103.944868,1.346653]},"properties":{"id":697,"name":"Student 697","pin":521139,"address":"TAMPINES TOWN COUNCIL 139 TAMPINES STREET 11","type":"home"}},{"type":"Feature","geometry":{"type":"Point","coordinates":[79.941655,15.85279]},"properties":{"id":698,"name":"Student 698","pin":523201,"address":"TAMPINES TOWN COUNCIL 201D TAMPINES STREET 21","type":"home"}},{"type":"Feature","geometry":{"type":"Point","coordinates":[103.953147,1.360322]},"properties":{"id":699,"name":"Student 699","pin":520475,"address":"TAMPINES TOWN COUNCIL 475 TAMPINES STREET 44","type":"home"}},{"type":"Feature","geometry":{"type":"Point","coordinates":[103.933336,1.348861]},"properties":{"id":700,"name":"Student 700","pin":521823,"address":"TAMPINES TOWN COUNCIL 823A TAMPINES STREET 81","type":"home"}},{"type":"Feature","geometry":{"type":"Point","coordinates":[103.8459706,1.3216968]},"properties":{"id":701,"name":"Student 701","pin":308433,"address":"TAN TOCK SENG HOSPITAL (EMERGENCY DEPARTMENT BASEMENT 1) - STATION 3 11 JALAN TAN TOCK SENG BASEMENT 1","type":"home"}},{"type":"Feature","geometry":{"type":"Point","coordinates":[103.8459706,1.3216968]},"properties":{"id":702,"name":"Student 702","pin":308433,"address":"TAN TOCK SENG HOSPITAL (MAIN LOBBY) - STATION 2 11 JALAN TAN TOCK SENG LEVEL 1","type":"home"}},{"type":"Feature","geometry":{"type":"Point","coordinates":[103.8459706,1.3216968]},"properties":{"id":703,"name":"Student 703","pin":308433,"address":"TAN TOCK SENG HOSPITAL - STATION 1 11 JALAN TAN TOCK SENG","type":"home"}},{"type":"Feature","geometry":{"type":"Point","coordinates":[103.946551,1.327337]},"properties":{"id":704,"name":"Student 704","pin":467356,"address":"TANAH MERAH MRT STATION 920 NEW UPPER CHANGI ROAD","type":"home"}},{"type":"Feature","geometry":{"type":"Point","coordinates":[103.7921,1.296902]},"properties":{"id":705,"name":"Student 705","pin":139299,"address":"TANGLIN TRUST SCHOOL 95 PORTSDOWN ROAD","type":"home"}},{"type":"Feature","geometry":{"type":"Point","coordinates":[103.797588,1.298419]},"properties":{"id":706,"name":"Student 706","pin":143046,"address":"TANJONG PAGAR - QUEENSWAY HDB BRANCH OFFICE 46 COMMONWEALTH DRIVE","type":"home"}},{"type":"Feature","geometry":{"type":"Point","coordinates":[103.8416,1.276079]},"properties":{"id":707,"name":"Student 707","pin":89774,"address":"TANJONG PAGAR COMMUNITY CLUB 101 CANTONMENT ROAD","type":"home"}},{"type":"Feature","geometry":{"type":"Point","coordinates":[3.617134,47.991832]},"properties":{"id":708,"name":"Student 708","pin":89055,"address":"TANJONG PAGAR COMPLEX 7B KEPPEL ROAD","type":"home"}},{"type":"Feature","geometry":{"type":"Point","coordinates":[103.845401,1.276691]},"properties":{"id":709,"name":"Student 709","pin":69119,"address":"TANJONG PAGAR MRT STATION 120 MAXWELL ROAD","type":"home"}},{"type":"Feature","geometry":{"type":"Point","coordinates":[103.8079756,1.2870511]},"properties":{"id":710,"name":"Student 710","pin":150006,"address":"TANJONG PAGAR TOWN COUNCIL - ABC HAWKER CENTER 6 JALAN BUKIT MERAH","type":"home"}},{"type":"Feature","geometry":{"type":"Point","coordinates":[103.842842,1.2757787]},"properties":{"id":711,"name":"Student 711","pin":82001,"address":"TANJONG PAGAR TOWN COUNCIL - STATION 1 1 TANJONG PAGAR ROAD","type":"home"}},{"type":"Feature","geometry":{"type":"Point","coordinates":[103.817549,1.282838]},"properties":{"id":712,"name":"Student 712","pin":150166,"address":"TANJONG PAGAR TOWN COUNCIL - STATION 1 166 BUKIT MERAH CENTRAL","type":"home"}},{"type":"Feature","geometry":{"type":"Point","coordinates":[103.842842,1.2757787]},"properties":{"id":713,"name":"Student 713","pin":82001,"address":"TANJONG PAGAR TOWN COUNCIL - STATION 2 1 TANJONG PAGAR ROAD","type":"home"}},{"type":"Feature","geometry":{"type":"Point","coordinates":[103.817549,1.282838]},"properties":{"id":714,"name":"Student 714","pin":150166,"address":"TANJONG PAGAR TOWN COUNCIL - STATION 2 166 BUKIT MERAH CENTRAL","type":"home"}},{"type":"Feature","geometry":{"type":"Point","coordinates":[103.850551,1.306197]},"properties":{"id":715,"name":"Student 715","pin":210665,"address":"TANJONG PAGAR TOWN COUNCIL 665 BUFFALO ROAD","type":"home"}},{"type":"Feature","geometry":{"type":"Point","coordinates":[103.905346,1.335629]},"properties":{"id":716,"name":"Student 716","pin":417818,"address":"TECHLINK 31 KAKI BUKIT ROAD 3","type":"home"}},{"type":"Feature","geometry":{"type":"Point","coordinates":[103.853577,1.363096]},"properties":{"id":717,"name":"Student 717","pin":569734,"address":"TECK GHEE COMMUNITY CLUB 861 ANG MO KIO AVENUE 10","type":"home"}},{"type":"Feature","geometry":{"type":"Point","coordinates":[103.932462,1.345555]},"properties":{"id":718,"name":"Student 718","pin":529757,"address":"TEMASEK POLYTECHNIC 21 TAMPINES AVENUE 1","type":"home"}},{"type":"Feature","geometry":{"type":"Point","coordinates":[103.81415,1.450182]},"properties":{"id":719,"name":"Student 719","pin":752468,"address":"TEO CHUAN KEE MINIMART 468B ADMIRALTY DRIVE #01-29","type":"home"}},{"type":"Feature","geometry":{"type":"Point","coordinates":[103.8371598,1.3768395]},"properties":{"id":720,"name":"Student 720","pin":560181,"address":"TEO CHUAN KEE MINIMART 468B ADMIRALTY DRIVE","type":"home"}},{"type":"Feature","geometry":{"type":"Point","coordinates":[103.8467157,1.2891465]},"properties":{"id":721,"name":"Student 721","pin":59817,"address":"THE CENTRAL 6 EU TONG SEN STREET","type":"home"}},{"type":"Feature","geometry":{"type":"Point","coordinates":[103.7643089,1.314918]},"properties":{"id":722,"name":"Student 722","pin":129588,"address":"THE CLEMENTI MALL 3155 COMMONWEALTH AVENUE WEST","type":"home"}},{"type":"Feature","geometry":{"type":"Point","coordinates":[103.862582,1.301105]},"properties":{"id":723,"name":"Student 723","pin":199554,"address":"THE CONCOURSE 298 BEACH ROAD","type":"home"}},{"type":"Feature","geometry":{"type":"Point","coordinates":[103.7927985,1.3391158]},"properties":{"id":724,"name":"Student 724","pin":287994,"address":"THE GRANDSTAND 200 TURF CLUB ROAD","type":"home"}},{"type":"Feature","geometry":{"type":"Point","coordinates":[103.843259,1.284591]},"properties":{"id":725,"name":"Student 725","pin":59810,"address":"THE MAJESTIC 80 EU TONG SEN STREET","type":"home"}},{"type":"Feature","geometry":{"type":"Point","coordinates":[103.8597263,1.2998197]},"properties":{"id":726,"name":"Student 726","pin":199595,"address":"THE PLAZA 7500E BEACH ROAD","type":"home"}},{"type":"Feature","geometry":{"type":"Point","coordinates":[103.78844,1.306842]},"properties":{"id":727,"name":"Student 727","pin":138617,"address":"THE STAR VISTA - STATION 1 1 VISTA GREEN EXCHANGE BASEMENT 1","type":"home"}},{"type":"Feature","geometry":{"type":"Point","coordinates":[103.78844,1.306842]},"properties":{"id":728,"name":"Student 728","pin":138617,"address":"THE STAR VISTA - STATION 2 1 VISTA GREEN EXCHANGE BASEMENT 1","type":"home"}},{"type":"Feature","geometry":{"type":"Point","coordinates":[103.747567,1.32954]},"properties":{"id":729,"name":"Student 729","pin":609930,"address":"THE STRATEGY 2 INTERNATIONAL BUSINESS PARK","type":"home"}},{"type":"Feature","geometry":{"type":"Point","coordinates":[103.851162,1.3053347]},"properties":{"id":730,"name":"Student 730","pin":218227,"address":"THE VERGE 2 SERANGOON ROAD #03-K3","type":"home"}},{"type":"Feature","geometry":{"type":"Point","coordinates":[103.848538,1.332253]},"properties":{"id":731,"name":"Student 731","pin":310480,"address":"THE VERGE 2 SERANGOON ROAD","type":"home"}},{"type":"Feature","geometry":{"type":"Point","coordinates":[103.781141,1.428724]},"properties":{"id":732,"name":"Student 732","pin":739065,"address":"THE WOODGROVE 30 WOODLANDS AVENUE 1","type":"home"}},{"type":"Feature","geometry":{"type":"Point","coordinates":[103.830935,1.354637]},"properties":{"id":733,"name":"Student 733","pin":574408,"address":"THOMSON PLAZA - STATION 1 301 UPPER THOMSON ROAD","type":"home"}},{"type":"Feature","geometry":{"type":"Point","coordinates":[103.830935,1.354637]},"properties":{"id":734,"name":"Student 734","pin":574408,"address":"THOMSON PLAZA - STATION 2 301 UPPER THOMSON ROAD","type":"home"}},{"type":"Feature","geometry":{"type":"Point","coordinates":[103.8324103,1.2847359]},"properties":{"id":735,"name":"Student 735","pin":168897,"address":"TIONG BAHRU MARKET & FOOD CENTRE 30 SENG POH ROAD","type":"home"}},{"type":"Feature","geometry":{"type":"Point","coordinates":[103.826998,1.285782]},"properties":{"id":736,"name":"Student 736","pin":168731,"address":"TIONG BAHRU MRT STATION 300 TIONG BAHRU ROAD","type":"home"}},{"type":"Feature","geometry":{"type":"Point","coordinates":[103.827342,1.286145]},"properties":{"id":737,"name":"Student 737","pin":168732,"address":"TIONG BAHRU PLAZA 302 TIONG BAHRU ROAD","type":"home"}},{"type":"Feature","geometry":{"type":"Point","coordinates":[103.850407,1.334687]},"properties":{"id":738,"name":"Student 738","pin":319194,"address":"TOA PAYOH CENTRAL COMMUNITY CLUB 93 TOA PAYOH CENTRAL","type":"home"}},{"type":"Feature","geometry":{"type":"Point","coordinates":[103.847554,1.332592]},"properties":{"id":739,"name":"Student 739","pin":319398,"address":"TOA PAYOH MRT STATION 510 LORONG 6 TOA PAYOH","type":"home"}},{"type":"Feature","geometry":{"type":"Point","coordinates":[103.907432,1.301923]},"properties":{"id":740,"name":"Student 740","pin":449409,"address":"TOUCH CENTRE 3 MARINE PARADE CENTRAL","type":"home"}},{"type":"Feature","geometry":{"type":"Point","coordinates":[103.891074,1.33035]},"properties":{"id":741,"name":"Student 741","pin":408865,"address":"TRAFFIC POLICE HEADQUARTERS  10 UBI AVENUE 3","type":"home"}},{"type":"Feature","geometry":{"type":"Point","coordinates":[103.889121,1.331672]},"properties":{"id":742,"name":"Student 742","pin":409045,"address":"TRINITY CHRISTIAN CHURCH 247 PAYA LEBAR ROAD","type":"home"}},{"type":"Feature","geometry":{"type":"Point","coordinates":[103.785218,1.291401]},"properties":{"id":743,"name":"Student 743","pin":118221,"address":"TUV SUD PSB BUILDING 1 SCIENCE PARK DRIVE","type":"home"}},{"type":"Feature","geometry":{"type":"Point","coordinates":[103.891785,1.333546]},"properties":{"id":744,"name":"Student 744","pin":408830,"address":"UB ONE 81 UBI AVENUE 4","type":"home"}},{"type":"Feature","geometry":{"type":"Point","coordinates":[103.896145,1.326293]},"properties":{"id":745,"name":"Student 745","pin":408564,"address":"UBI TECH PARK 10 UBI CRESENT #02-731","type":"home"}},{"type":"Feature","geometry":{"type":"Point","coordinates":[103.8256861,1.2928172]},"properties":{"id":746,"name":"Student 746","pin":248992,"address":"UBI TECH PARK 10 UBI CRESENT","type":"home"}},{"type":"Feature","geometry":{"type":"Point","coordinates":[103.8434866,1.3177246]},"properties":{"id":747,"name":"Student 747","pin":307591,"address":"UNITED SQUARE SHOPPING MALL - STATION 1 101 THOMSON ROAD","type":"home"}},{"type":"Feature","geometry":{"type":"Point","coordinates":[103.8434866,1.3177246]},"properties":{"id":748,"name":"Student 748","pin":307591,"address":"UNITED SQUARE SHOPPING MALL - STATION 2 101 THOMSON ROAD","type":"home"}},{"type":"Feature","geometry":{"type":"Point","coordinates":[103.830988,1.292413]},"properties":{"id":749,"name":"Student 749","pin":69118,"address":"URA CENTRE - STATION 1 45 MAXWELL ROAD","type":"home"}},{"type":"Feature","geometry":{"type":"Point","coordinates":[103.845134,1.279866]},"properties":{"id":750,"name":"Student 750","pin":69118,"address":"URA CENTRE - STATION 2 45 MAXWELL ROAD","type":"home"}},{"type":"Feature","geometry":{"type":"Point","coordinates":[103.8619484,1.3076646]},"properties":{"id":751,"name":"Student 751","pin":208767,"address":"V-HOTEL @ LAVENDER 70 JELLICOE ROAD #01-K1","type":"home"}},{"type":"Feature","geometry":{"type":"Point","coordinates":[103.836184,1.30451]},"properties":{"id":752,"name":"Student 752","pin":238859,"address":"V-HOTEL @ LAVENDER 70 JELLICOE ROAD","type":"home"}},{"type":"Feature","geometry":{"type":"Point","coordinates":[103.79392,1.430554]},"properties":{"id":753,"name":"Student 753","pin":730548,"address":"VISTA POINT - STATION 1 548 WOODLANDS DRIVE 44","type":"home"}},{"type":"Feature","geometry":{"type":"Point","coordinates":[103.79392,1.430554]},"properties":{"id":754,"name":"Student 754","pin":730548,"address":"VISTA POINT - STATION 2 548 WOODLANDS DRIVE 44","type":"home"}},{"type":"Feature","geometry":{"type":"Point","coordinates":[103.758733,1.338942]},"properties":{"id":755,"name":"Student 755","pin":658064,"address":"WCEGA PLAZA 1 BUKIT BATOK CRESCENT LEVEL 1 (NEAR LIFT LOBBY)","type":"home"}},{"type":"Feature","geometry":{"type":"Point","coordinates":[103.759705,1.337164]},"properties":{"id":756,"name":"Student 756","pin":658065,"address":"WCEGA TOWER 21 BUKIT BATOK CRESCENT LEVEL 1 (NEAR LIFT LOBBY)","type":"home"}},{"type":"Feature","geometry":{"type":"Point","coordinates":[103.945655,1.35786]},"properties":{"id":757,"name":"Student 757","pin":520406,"address":"WELLMART BLK 406 TAMPINES 406 TAMPINES STREET 41","type":"home"}},{"type":"Feature","geometry":{"type":"Point","coordinates":[103.766292,1.303843]},"properties":{"id":758,"name":"Student 758","pin":127371,"address":"WEST COAST PLAZA - STATION 1 154 WEST COAST ROAD","type":"home"}},{"type":"Feature","geometry":{"type":"Point","coordinates":[103.766292,1.303843]},"properties":{"id":759,"name":"Student 759","pin":127371,"address":"WEST COAST PLAZA - STATION 2 154 WEST COAST ROAD B2-K1","type":"home"}},{"type":"Feature","geometry":{"type":"Point","coordinates":[103.719325,1.348703]},"properties":{"id":760,"name":"Student 760","pin":640509,"address":"WEST COAST TOWN COUNCIL - JURONG WEST BRANCH - STATION 1 509 JURONG WEST STREET 51","type":"home"}},{"type":"Feature","geometry":{"type":"Point","coordinates":[103.719325,1.348703]},"properties":{"id":761,"name":"Student 761","pin":640509,"address":"WEST COAST TOWN COUNCIL - JURONG WEST BRANCH - STATION 2 509 JURONG WEST STREET 51","type":"home"}},{"type":"Feature","geometry":{"type":"Point","coordinates":[103.781952,1.304381]},"properties":{"id":762,"name":"Student 762","pin":130028,"address":"WEST COAST TOWN COUNCIL 28 DOVER CRESCENT","type":"home"}},{"type":"Feature","geometry":{"type":"Point","coordinates":[103.765669,1.312638]},"properties":{"id":763,"name":"Student 763","pin":120451,"address":"WEST COAST TOWN COUNCIL 451 CLEMENTI AVENUE 3","type":"home"}},{"type":"Feature","geometry":{"type":"Point","coordinates":[103.765669,1.312638]},"properties":{"id":764,"name":"Student 764","pin":120451,"address":"WEST COAST TOWN COUNCIL 451 CLEMENTI AVENUE 3","type":"home"}},{"type":"Feature","geometry":{"type":"Point","coordinates":[103.76596,1.311906]},"properties":{"id":765,"name":"Student 765","pin":120453,"address":"WEST COAST TOWN COUNCIL 453 CLEMENTI AVENUE 3","type":"home"}},{"type":"Feature","geometry":{"type":"Point","coordinates":[103.759029,1.311718]},"properties":{"id":766,"name":"Student 766","pin":120502,"address":"WEST COAST TOWN COUNCIL 502 WEST COAST ROAD","type":"home"}},{"type":"Feature","geometry":{"type":"Point","coordinates":[103.749107,1.349649]},"properties":{"id":767,"name":"Student 767","pin":658713,"address":"WEST MALL 1 BUKIT BATOK CENTRAL","type":"home"}},{"type":"Feature","geometry":{"type":"Point","coordinates":[103.7426584,1.3346373]},"properties":{"id":768,"name":"Student 768","pin":608532,"address":"WESTGATE - STATION 1 3 GATEWAY DRIVE BASEMENT 1","type":"home"}},{"type":"Feature","geometry":{"type":"Point","coordinates":[103.7426584,1.3346373]},"properties":{"id":769,"name":"Student 769","pin":608532,"address":"WESTGATE - STATION 2 3 GATEWAY DRIVE LEVEL 2","type":"home"}},{"type":"Feature","geometry":{"type":"Point","coordinates":[103.8026867,1.4390287]},"properties":{"id":770,"name":"Student 770","pin":729940,"address":"WESTLITE - MANDAI DORMITORY 34 MANDAI ESTATE","type":"home"}},{"type":"Feature","geometry":{"type":"Point","coordinates":[103.751472,1.335832]},"properties":{"id":771,"name":"Student 771","pin":608591,"address":"WESTLITE DORMITORY - BLK 14 18 TOH GUAN ROAD","type":"home"}},{"type":"Feature","geometry":{"type":"Point","coordinates":[103.950162,1.372567]},"properties":{"id":772,"name":"Student 772","pin":518457,"address":"WHITE SANDS - STATION 1 1 PASIR RIS CENTRAL STREET 3","type":"home"}},{"type":"Feature","geometry":{"type":"Point","coordinates":[103.950162,1.372567]},"properties":{"id":773,"name":"Student 773","pin":518457,"address":"WHITE SANDS - STATION 2 1 PASIR RIS CENTRAL STREET 3","type":"home"}},{"type":"Feature","geometry":{"type":"Point","coordinates":[103.849615,1.302102]},"properties":{"id":774,"name":"Student 774","pin":228095,"address":"WILKIE EDGE 8 WILKIE ROAD","type":"home"}},{"type":"Feature","geometry":{"type":"Point","coordinates":[103.8331287,1.3037028]},"properties":{"id":775,"name":"Student 775","pin":238877,"address":"WISMA ATRIA BASEMENT 1 - STATION 2  435 ORCHARD ROAD","type":"home"}},{"type":"Feature","geometry":{"type":"Point","coordinates":[103.8331287,1.3037028]},"properties":{"id":776,"name":"Student 776","pin":238877,"address":"WISMA ATRIA LEVEL 1 - STATION 1  435 ORCHARD ROAD","type":"home"}},{"type":"Feature","geometry":{"type":"Point","coordinates":[103.7867518,1.4348344]},"properties":{"id":777,"name":"Student 777","pin":730900,"address":"WOODLANDS CIVIC CENTRE  900 SOUTH WOODLANDS DRIVE #03-07","type":"home"}},{"type":"Feature","geometry":{"type":"Point","coordinates":[103.825796,1.282517]},"properties":{"id":778,"name":"Student 778","pin":161026,"address":"WOODLANDS CIVIC CENTRE  900 SOUTH WOODLANDS DRIVE","type":"home"}},{"type":"Feature","geometry":{"type":"Point","coordinates":[103.8026867,1.4390287]},"properties":{"id":779,"name":"Student 779","pin":738991,"address":"WOODLANDS GALAXY COMMUNITY CLUB 31 WOODLANDS AVENUE 6","type":"home"}},{"type":"Feature","geometry":{"type":"Point","coordinates":[103.787195,1.435152]},"properties":{"id":780,"name":"Student 780","pin":730900,"address":"WOODLANDS HDB BRANCH OFFICE - STATION 1 900 SOUTH WOODLANDS DRIVE, CIVIC CENTRE #03-00","type":"home"}},{"type":"Feature","geometry":{"type":"Point","coordinates":[103.8388679,1.301177]},"properties":{"id":781,"name":"Student 781","pin":258499,"address":"WOODLANDS HDB BRANCH OFFICE - STATION 1 900 SOUTH WOODLANDS DRIVE, CIVIC CENTRE","type":"home"}},{"type":"Feature","geometry":{"type":"Point","coordinates":[103.787195,1.435152]},"properties":{"id":782,"name":"Student 782","pin":730900,"address":"WOODLANDS HDB BRANCH OFFICE - STATION 2 900 SOUTH WOODLANDS DRIVE, CIVIC CENTRE #03-01","type":"home"}},{"type":"Feature","geometry":{"type":"Point","coordinates":[103.850257,1.2839928]},"properties":{"id":783,"name":"Student 783","pin":48940,"address":"WOODLANDS HDB BRANCH OFFICE - STATION 2 900 SOUTH WOODLANDS DRIVE, CIVIC CENTRE","type":"home"}},{"type":"Feature","geometry":{"type":"Point","coordinates":[103.798159,1.445962]},"properties":{"id":784,"name":"Student 784","pin":730768,"address":"WOODLANDS MART - STATION 1 768 WOODLANDS AVENUE 6","type":"home"}},{"type":"Feature","geometry":{"type":"Point","coordinates":[103.798159,1.445962]},"properties":{"id":785,"name":"Student 785","pin":730768,"address":"WOODLANDS MART - STATION 2 768 WOODLANDS AVENUE 6","type":"home"}},{"type":"Feature","geometry":{"type":"Point","coordinates":[103.7871623,1.4372567]},"properties":{"id":786,"name":"Student 786","pin":738343,"address":"WOODLANDS MRT STATION 30 WOODLANDS AVENUE 2","type":"home"}},{"type":"Feature","geometry":{"type":"Point","coordinates":[103.790366,1.442844]},"properties":{"id":787,"name":"Student 787","pin":730883,"address":"WOODLANDS NORTH PLAZA - STATION 1 883 WOODLANDS STREET 82","type":"home"}},{"type":"Feature","geometry":{"type":"Point","coordinates":[103.790366,1.442844]},"properties":{"id":788,"name":"Student 788","pin":730883,"address":"WOODLANDS NORTH PLAZA - STATION 2 883 WOODLANDS STREET 82","type":"home"}},{"type":"Feature","geometry":{"type":"Point","coordinates":[103.775072,1.430806]},"properties":{"id":789,"name":"Student 789","pin":738579,"address":"WOODLANDS POLYCLINICS 10 WOODLANDS STREET 31","type":"home"}},{"type":"Feature","geometry":{"type":"Point","coordinates":[103.950535,1.36084]},"properties":{"id":790,"name":"Student 790","pin":523496,"address":"XI QI SUPERMARKET 496G TAMPINES AVENUE 9 #01-500","type":"home"}},{"type":"Feature","geometry":{"type":"Point","coordinates":[103.8283798,1.3703594]},"properties":{"id":791,"name":"Student 791","pin":574416,"address":"XI QI SUPERMARKET 496G TAMPINES AVENUE 9","type":"home"}},{"type":"Feature","geometry":{"type":"Point","coordinates":[103.770005,1.322642]},"properties":{"id":792,"name":"Student 792","pin":120105,"address":"XIN DE AN MEDICAL & MINIMART  105 CLEMENTI STREET 12, SUNSET WAY #01-02","type":"home"}},{"type":"Feature","geometry":{"type":"Point","coordinates":[103.861257,1.303499]},"properties":{"id":793,"name":"Student 793","pin":199018,"address":"XIN DE AN MEDICAL & MINIMART  105 CLEMENTI STREET 12, SUNSET WAY","type":"home"}},{"type":"Feature","geometry":{"type":"Point","coordinates":[103.74739,1.397314]},"properties":{"id":794,"name":"Student 794","pin":689715,"address":"YEW TEE MRT STATION 61 CHOA CHU KANG DRIVE","type":"home"}},{"type":"Feature","geometry":{"type":"Point","coordinates":[103.746546,1.39729]},"properties":{"id":795,"name":"Student 795","pin":689578,"address":"YEW TEE POINT - STATION 1 21 CHOA CHU KANG NORTH 6","type":"home"}},{"type":"Feature","geometry":{"type":"Point","coordinates":[103.746546,1.39729]},"properties":{"id":796,"name":"Student 796","pin":689578,"address":"YEW TEE POINT - STATION 2 21 CHOA CHU KANG NORTH 6","type":"home"}},{"type":"Feature","geometry":{"type":"Point","coordinates":[103.747186,1.398277]},"properties":{"id":797,"name":"Student 797","pin":680622,"address":"YEW TEE SHOPPING CENTRE - STATION 1 622 CHOA CHU KANG STREET 62","type":"home"}},{"type":"Feature","geometry":{"type":"Point","coordinates":[103.747186,1.398277]},"properties":{"id":798,"name":"Student 798","pin":680622,"address":"YEW TEE SHOPPING CENTRE - STATION 2 622 CHOA CHU KANG STREET 62","type":"home"}},{"type":"Feature","geometry":{"type":"Point","coordinates":[103.871996,1.3753469]},"properties":{"id":799,"name":"Student 799","pin":554913,"address":"YIO CHU KANG AMENITIES CENTRE 19 SERANGOON NORTH AVENUE 5","type":"home"}},{"type":"Feature","geometry":{"type":"Point","coordinates":[103.844984,1.381747]},"properties":{"id":800,"name":"Student 800","pin":569813,"address":"YIO CHU KANG MRT STATION 3000 ANG MO KIO AVENUE 8","type":"home"}},{"type":"Feature","geometry":{"type":"Point","coordinates":[103.8350907,1.429387]},"properties":{"id":801,"name":"Student 801","pin":769093,"address":"YISHUN MRT STATION 301 YISHUN AVENUE 2","type":"home"}},{"type":"Feature","geometry":{"type":"Point","coordinates":[103.8371857,1.4234706]},"properties":{"id":802,"name":"Student 802","pin":768826,"address":"YISHUN POLYCLINICS 100 YISHUN CENTRAL","type":"home"}},{"type":"Feature","geometry":{"type":"Point","coordinates":[103.8297943,1.4391732]},"properties":{"id":803,"name":"Student 803","pin":768435,"address":"YISHUN SAPPHIRE CLUB HOUSE 44 CANBERRA DRIVE","type":"home"}},{"type":"Feature","geometry":{"type":"Point","coordinates":[103.848116,1.297649]},"properties":{"id":804,"name":"Student 804","pin":238824,"address":"YMCA BUILDING ONE ORCHARD ROAD","type":"home"}},{"type":"Feature","geometry":{"type":"Point","coordinates":[103.8475293,1.3280917]},"properties":{"id":805,"name":"Student 805","pin":329984,"address":"ZHONGSHAN MALL 20 AH HOOD ROAD","type":"home"}},{"type":"Feature","geometry":{"type":"Point","coordinates":[103.830988,1.292413]},"properties":{"id":806,"name":"Student 806","pin":247792,"address":"ZION RIVERSIDE FOOD CENTRE 70 ZION ROAD","type":"home"}},{"type":"Feature","geometry":{"type":"Point","coordinates":[103.904622,1.305511]},"properties":{"id":807,"name":"Student 807","pin":428802,"address":"112 KATONG 112 EAST COAST ROAD #01-1317","type":"home"}},{"type":"Feature","geometry":{"type":"Point","coordinates":[103.856182,1.296389]},"properties":{"id":808,"name":"Student 808","pin":189685,"address":"112 KATONG 112 EAST COAST ROAD","type":"home"}},{"type":"Feature","geometry":{"type":"Point","coordinates":[103.78126,1.309126]},"properties":{"id":809,"name":"Student 809","pin":139651,"address":"DBS","type":"home"}},{"type":"Feature","geometry":{"type":"Point","coordinates":[103.858967,1.295968]},"properties":{"id":810,"name":"Student 810","pin":38983,"address":"SUNTEC CITY MALL (GRANDMAS PROUDLY","type":"home"}}]}